$GPGGA,153730.00,4847.114569,N,00205.967740,E,1,08,1.4,158.30,M,47.29,M,,*68
$GPVTG,188.3,T,,,000.10,N,000.18,K,A*4A
$GPGSV,3,1,09,03,38,278,45,06,21,087,39,15,73,146,45,16,77,250,45*75
$GPGSV,3,2,09,18,27,121,39,21,58,068,45,25,10,205,37,37,35,153,*74
$GPGSV,3,3,09,22,09,154,37,,,,,,,,,,,,*4D
$GPGSA,M,3,03,06,15,16,18,21,25,22,,,,,2.1,1.4,1.6*34
$GPZDA,153730.16,23,11,2005,00,00*64
$GPGRS,153730.00,1,0.4,-1.0,-1.1,0.3,1.5,0.1,-1.8,0.8,,,,*62
$GPGST,153730.00,,,,,,,*7A
$GPGGA,153731.00,4847.114554,N,00205.967731,E,1,08,1.4,158.30,M,47.29,M,,*61
$GPVTG,206.0,T,,,000.04,N,000.08,K,A*48
$GPGSV,3,1,09,03,38,278,45,06,21,087,39,15,73,146,45,16,77,250,45*75
$GPGSV,3,2,09,18,27,121,40,21,58,068,45,25,10,205,37,37,35,153,*7A
$GPGSV,3,3,09,22,09,154,37,,,,,,,,,,,,*4D
$GPGSA,M,3,03,06,15,16,18,21,25,22,,,,,2.1,1.4,1.6*34
$GPZDA,153731.16,23,11,2005,00,00*65
$GPGRS,153731.00,1,0.4,-1.0,-1.1,0.3,1.5,0.1,-1.8,0.8,,,,*63
$GPGST,153731.00,,,,,,,*7B
$GPGGA,153732.00,4847.114549,N,00205.967726,E,1,08,1.4,158.28,M,47.29,M,,*61
$GPVTG,181.1,T,,,000.03,N,000.05,K,A*4F
$GPGSV,3,1,09,03,38,278,45,06,21,087,39,15,73,146,45,16,77,250,45*75
$GPGSV,3,2,09,18,27,121,40,21,58,068,45,25,10,205,38,37,35,153,*75
$GPGSV,3,3,09,22,09,154,36,,,,,,,,,,,,*4C
$GPGSA,M,3,03,06,15,16,18,21,25,22,,,,,2.1,1.4,1.6*34
$GPZDA,153732.17,23,11,2005,00,00*67
$GPGRS,153732.00,1,0.4,-1.0,-1.1,0.3,1.5,0.1,-1.8,0.8,,,,*60
$GPGST,153732.00,,,,,,,*78
$GPGGA,153733.00,4847.114547,N,00205.967725,E,1,08,1.4,158.29,M,47.29,M,,*6C
$GPVTG,167.6,T,,,000.04,N,000.08,K,A*4A
$GPGSV,3,1,09,03,38,278,44,06,21,087,39,15,73,146,45,16,77,250,44*75
$GPGSV,3,2,09,18,27,121,40,21,58,068,45,25,10,205,38,37,35,153,*75
$GPGSV,3,3,09,22,09,154,36,,,,,,,,,,,,*4C
$GPGSA,M,3,03,06,15,16,18,21,25,22,,,,,2.1,1.4,1.6*34
$GPZDA,153733.16,23,11,2005,00,00*67
$GPGRS,153733.00,1,0.4,-1.1,-1.1,0.3,1.5,0.1,-1.8,0.8,,,,*60
$GPGST,153733.00,,,,,,,*79
$GPGGA,153734.00,4847.114550,N,00205.967721,E,1,08,1.4,158.28,M,47.29,M,,*68
$GPVTG,325.5,T,,,000.07,N,000.12,K,A*45
$GPGSV,3,1,09,03,38,278,44,06,21,087,40,15,73,146,45,16,77,250,44*7B
$GPGSV,3,2,09,18,27,121,40,21,58,068,46,25,10,205,37,37,35,153,*79
$GPGSV,3,3,09,22,09,154,35,,,,,,,,,,,,*4F
$GPGSA,M,3,03,06,15,16,18,21,25,22,,,,,2.1,1.4,1.6*34
$GPZDA,153734.15,23,11,2005,00,00*63
$GPGRS,153734.00,1,0.4,-1.1,-1.1,0.3,1.5,0.1,-1.8,0.8,,,,*67
$GPGST,153734.00,,,,,,,*7E
$GPGGA,153735.00,4847.114548,N,00205.967719,E,1,08,1.4,158.27,M,47.29,M,,*64
$GPVTG,169.3,T,,,000.06,N,000.10,K,A*4A
$GPGSV,3,1,09,03,38,278,44,06,21,087,40,15,73,146,45,16,77,250,44*7B
$GPGSV,3,2,09,18,27,121,40,21,58,068,46,25,10,205,37,37,35,153,*79
$GPGSV,3,3,09,22,09,154,36,,,,,,,,,,,,*4C
$GPGSA,M,3,03,06,15,16,18,21,25,22,,,,,2.1,1.4,1.6*34
$GPZDA,153735.15,23,11,2005,00,00*62
$GPGRS,153735.00,1,0.4,-1.1,-1.1,0.3,1.5,0.1,-1.8,0.8,,,,*66
$GPGST,153735.00,,,,,,,*7F
$GPGGA,153736.00,4847.114542,N,00205.967718,E,1,08,1.4,158.27,M,47.29,M,,*6C
$GPVTG,194.9,T,,,000.05,N,000.08,K,A*48
$GPGSV,3,1,09,03,38,278,45,06,21,087,39,15,73,146,45,16,77,250,44*74
$GPGSV,3,2,09,18,27,121,40,21,58,068,46,25,10,205,38,37,35,153,*76
$GPGSV,3,3,09,22,09,154,36,,,,,,,,,,,,*4C
$GPGSA,M,3,03,06,15,16,18,21,25,22,,,,,2.1,1.4,1.6*34
$GPZDA,153736.16,23,11,2005,00,00*62
$GPGRS,153736.00,1,0.4,-1.1,-1.1,0.3,1.5,0.1,-1.9,0.8,,,,*64
$GPGST,153736.00,,,,,,,*7C
$GPGGA,153737.00,4847.114541,N,00205.967719,E,1,08,1.4,158.27,M,47.29,M,,*6F
$GPVTG,117.2,T,,,000.02,N,000.03,K,A*44
$GPGSV,3,1,09,03,38,278,45,06,20,087,39,15,73,146,45,16,77,250,44*75
$GPGSV,3,2,09,18,27,121,40,21,58,068,46,25,10,205,38,37,35,153,*76
$GPGSV,3,3,09,22,09,154,36,,,,,,,,,,,,*4C
$GPGSA,M,3,03,06,15,16,18,21,25,22,,,,,2.1,1.4,1.6*34
$GPZDA,153737.17,23,11,2005,00,00*62
$GPGRS,153737.00,1,0.4,-1.1,-1.1,0.3,1.5,0.1,-1.9,0.8,,,,*65
$GPGST,153737.00,,,,,,,*7D
$GPGGA,153738.00,4847.114540,N,00205.967723,E,1,08,1.4,158.27,M,47.29,M,,*68
$GPVTG,164.9,T,,,000.05,N,000.08,K,A*47
$GPGSV,3,1,09,03,38,278,44,06,20,087,39,15,73,146,44,16,77,250,44*75
$GPGSV,3,2,09,18,27,121,40,21,58,068,45,25,10,205,37,37,35,153,*7A
$GPGSV,3,3,09,22,09,154,35,,,,,,,,,,,,*4F
$GPGSA,M,3,03,06,15,16,18,21,25,22,,,,,2.1,1.4,1.6*34
$GPZDA,153738.15,23,11,2005,00,00*6F
$GPGRS,153738.00,1,0.4,-1.1,-1.1,0.3,1.5,0.1,-1.9,0.8,,,,*6A
$GPGST,153738.00,,,,,,,*72
$GPGGA,153739.00,4847.114543,N,00205.967727,E,1,08,1.4,158.27,M,47.29,M,,*6E
$GPVTG,32.0,T,,,000.08,N,000.15,K,A*7D
$GPGSV,3,1,09,03,38,278,45,06,20,087,39,15,73,146,44,16,77,250,44*74
$GPGSV,3,2,09,18,27,121,40,21,58,068,45,25,10,205,38,37,35,153,*75
$GPGSV,3,3,09,22,09,154,35,,,,,,,,,,,,*4F
$GPGSA,M,3,03,06,15,16,18,21,25,22,,,,,2.1,1.4,1.6*34
$GPZDA,153739.15,23,11,2005,00,00*6E
$GPGRS,153739.00,1,0.4,-1.1,-1.1,0.3,1.5,0.1,-1.9,0.8,,,,*6B
$GPGST,153739.00,,,,,,,*73
$GPGGA,153740.00,4847.114546,N,00205.967725,E,1,08,1.4,158.26,M,47.29,M,,*66
$GPVTG,247.4,T,,,000.01,N,000.03,K,A*47
$GPGSV,3,1,09,03,38,278,45,06,20,087,39,15,73,146,44,16,77,250,44*74
$GPGSV,3,2,09,18,27,121,41,21,58,068,45,25,10,205,38,37,35,153,*74
$GPGSV,3,3,09,22,09,154,36,,,,,,,,,,,,*4C
$GPGSA,M,3,03,06,15,16,18,21,25,22,,,,,2.1,1.4,1.6*34
$GPZDA,153740.15,23,11,2005,00,00*60
$GPGRS,153740.00,1,0.4,-1.1,-1.1,0.3,1.5,0.1,-1.9,0.8,,,,*65
$GPGST,153740.00,,,,,,,*7D
$GPGGA,153741.00,4847.114544,N,00205.967720,E,1,08,1.4,158.28,M,47.29,M,,*6E
$GPVTG,204.1,T,,,000.08,N,000.14,K,A*4A
$GPGSV,3,1,09,03,38,278,45,06,20,087,40,15,73,145,45,16,77,250,44*78
$GPGSV,3,2,09,18,27,121,40,21,58,068,45,25,10,205,37,37,35,153,*7A
$GPGSV,3,3,09,22,09,154,36,,,,,,,,,,,,*4C
$GPGSA,M,3,03,06,15,16,18,21,25,22,,,,,2.1,1.4,1.6*34
$GPZDA,153741.16,23,11,2005,00,00*62
$GPGRS,153741.00,1,0.4,-1.1,-1.1,0.3,1.5,0.1,-1.9,0.8,,,,*64
$GPGST,153741.00,,,,,,,*7C
$GPGGA,153742.00,4847.114539,N,00205.967720,E,1,08,1.4,158.30,M,47.29,M,,*6E
$GPVTG,163.2,T,,,000.04,N,000.07,K,A*45
$GPGSV,3,1,09,03,38,278,44,06,20,087,39,15,73,145,45,16,77,250,44*77
$GPGSV,3,2,09,18,27,121,40,21,58,068,45,25,10,205,37,37,35,153,*7A
$GPGSV,3,3,09,22,09,154,35,,,,,,,,,,,,*4F
$GPGSA,M,3,03,06,15,16,18,21,25,22,,,,,2.1,1.4,1.6*34
$GPZDA,153742.17,23,11,2005,00,00*60
$GPGRS,153742.00,1,0.4,-1.1,-1.1,0.3,1.5,0.1,-1.9,0.8,,,,*67
$GPGST,153742.00,,,,,,,*7F
$GPGGA,153743.00,4847.114542,N,00205.967725,E,1,08,1.4,158.28,M,47.29,M,,*6F
$GPVTG,24.5,T,,,000.07,N,000.12,K,A*77
$GPGSV,3,1,09,03,38,278,45,06,20,087,39,15,73,145,45,16,77,250,44*76
$GPGSV,3,2,09,18,27,121,40,21,58,068,45,25,10,205,37,37,35,153,*7A
$GPGSV,3,3,09,22,09,154,35,,,,,,,,,,,,*4F
$GPGSA,M,3,03,06,15,16,18,21,25,22,,,,,2.1,1.4,1.6*34
$GPZDA,153743.15,23,11,2005,00,00*63
$GPGRS,153743.00,1,0.4,-1.1,-1.1,0.3,1.5,0.1,-1.9,0.8,,,,*66
$GPGST,153743.00,,,,,,,*7E
$GPGGA,153744.00,4847.114545,N,00205.967723,E,1,08,1.4,158.27,M,47.29,M,,*66
$GPVTG,240.5,T,,,000.02,N,000.04,K,A*45
$GPGSV,3,1,09,03,38,278,45,06,20,087,39,15,73,145,45,16,77,250,45*77
$GPGSV,3,2,09,18,27,121,40,21,58,068,44,25,10,205,38,37,35,153,*74
$GPGSV,3,3,09,22,09,154,35,,,,,,,,,,,,*4F
$GPGSA,M,3,03,06,15,16,18,21,25,22,,,,,2.1,1.4,1.6*34
$GPZDA,153744.15,23,11,2005,00,00*64
$GPGRS,153744.00,1,0.4,-1.1,-1.1,0.3,1.5,0.1,-1.9,0.8,,,,*61
$GPGST,153744.00,,,,,,,*79
$GPGGA,153745.00,4847.114545,N,00205.967705,E,1,08,1.4,158.27,M,47.29,M,,*63
$GPVTG,295.3,T,,,000.07,N,000.14,K,A*4F
$GPGSV,3,1,09,03,38,278,45,06,20,087,39,15,73,145,45,16,77,250,45*77
$GPGSV,3,2,09,18,27,121,40,21,58,068,45,25,10,205,38,33,31,202,*72
$GPGSV,3,3,09,22,09,154,35,,,,,,,,,,,,*4F
$GPGSA,M,3,03,06,15,16,18,21,25,22,,,,,2.1,1.4,1.6*34
$GPZDA,153745.16,23,11,2005,00,00*66
$GPGRS,153745.00,1,0.4,-1.1,-1.1,0.3,1.5,0.1,-1.9,0.8,,,,*60
$GPGST,153745.00,,,,,,,*78
$GPGGA,153746.00,4847.114603,N,00205.967250,E,1,08,1.4,158.26,M,47.29,M,,*65
$GPVTG,280.9,T,,,002.10,N,003.89,K,A*42
$GPGSV,3,1,09,03,38,278,45,06,20,087,38,15,73,145,45,16,77,250,45*76
$GPGSV,3,2,09,18,27,121,40,21,58,068,45,25,10,205,38,33,31,202,*72
$GPGSV,3,3,09,22,09,154,34,,,,,,,,,,,,*4E
$GPGSA,M,3,03,06,15,16,18,21,25,22,,,,,2.1,1.4,1.6*34
$GPZDA,153746.16,23,11,2005,00,00*65
$GPGRS,153746.00,1,0.4,-1.1,-1.1,0.3,1.5,0.1,-1.9,0.8,,,,*63
$GPGST,153746.00,,,,,,,*7B
$GPGGA,153747.00,4847.114785,N,00205.965849,E,1,08,1.4,158.26,M,47.29,M,,*6B
$GPVTG,281.3,T,,,004.70,N,008.70,K,A*44
$GPGSV,3,1,09,03,38,278,44,06,20,087,39,15,73,145,45,16,77,250,44*77
$GPGSV,3,2,09,18,27,121,40,21,58,068,45,25,10,205,39,33,31,202,*73
$GPGSV,3,3,09,22,09,154,36,,,,,,,,,,,,*4C
$GPGSA,M,3,03,06,15,16,18,21,25,22,,,,,2.1,1.4,1.6*34
$GPZDA,153747.17,23,11,2005,00,00*65
$GPGRS,153747.00,1,0.4,-1.1,-1.1,0.3,1.5,0.1,-1.9,0.8,,,,*62
$GPGST,153747.00,,,,,,,*7A
$GPGGA,153748.00,4847.115124,N,00205.963509,E,1,08,1.4,158.25,M,47.29,M,,*64
$GPVTG,282.9,T,,,006.71,N,012.43,K,A*45
$GPGSV,3,1,09,03,38,278,45,06,20,087,39,15,73,145,45,16,77,250,44*76
$GPGSV,3,2,09,18,27,121,40,21,58,068,45,25,10,205,39,33,31,202,*73
$GPGSV,3,3,09,22,09,154,36,,,,,,,,,,,,*4C
$GPGSA,M,3,03,06,15,16,18,21,25,22,,,,,2.1,1.4,1.6*34
$GPZDA,153748.16,23,11,2005,00,00*6B
$GPGRS,153748.00,1,0.4,-1.1,-1.1,0.3,1.5,0.1,-1.9,0.8,,,,*6D
$GPGST,153748.00,,,,,,,*75
$GPGGA,153749.00,4847.115590,N,00205.960399,E,1,08,1.4,158.24,M,47.29,M,,*63
$GPVTG,282.8,T,,,008.49,N,015.72,K,A*44
$GPGSV,3,1,09,03,38,278,45,06,20,087,39,15,73,145,45,16,77,250,44*76
$GPGSV,3,2,09,18,27,121,39,21,58,068,45,25,10,205,38,33,31,202,*7C
$GPGSV,3,3,09,22,09,154,35,,,,,,,,,,,,*4F
$GPGSA,M,3,03,06,15,16,18,21,25,22,,,,,2.1,1.4,1.6*34
$GPZDA,153749.16,23,11,2005,00,00*6A
$GPGRS,153749.00,1,0.4,-1.1,-1.1,0.3,1.5,0.1,-1.9,0.8,,,,*6C
$GPGST,153749.00,,,,,,,*74
$GPGGA,153750.00,4847.116167,N,00205.956600,E,1,08,1.4,158.22,M,47.29,M,,*62
$GPVTG,283.2,T,,,010.08,N,018.67,K,A*4A
$GPGSV,3,1,09,03,38,278,45,06,20,087,39,15,73,145,44,16,77,250,44*77
$GPGSV,3,2,09,18,27,121,39,21,58,068,45,25,10,205,38,33,31,202,*7C
$GPGSV,3,3,09,22,09,154,36,,,,,,,,,,,,*4C
$GPGSA,M,3,03,06,15,16,18,21,25,22,,,,,2.1,1.4,1.6*34
$GPZDA,153750.15,23,11,2005,00,00*61
$GPGRS,153750.00,1,0.4,-1.1,-1.1,0.3,1.5,0.1,-1.9,0.8,,,,*64
$GPGST,153750.00,,,,,,,*7C
$GPGGA,153751.00,4847.116839,N,00205.952181,E,1,08,1.4,158.19,M,47.29,M,,*63
$GPVTG,283.0,T,,,011.50,N,021.30,K,A*4C
$GPGSV,3,1,09,03,38,278,44,06,20,087,38,15,73,145,45,16,77,250,44*76
$GPGSV,3,2,09,18,27,121,38,21,58,068,45,25,10,205,38,33,31,202,*7D
$GPGSV,3,3,09,22,09,154,36,,,,,,,,,,,,*4C
$GPGSA,M,3,03,06,15,16,18,21,25,22,,,,,2.1,1.4,1.6*34
$GPZDA,153751.16,23,11,2005,00,00*63
$GPGRS,153751.00,1,0.4,-1.1,-1.1,0.3,1.5,0.1,-1.9,0.8,,,,*65
$GPGST,153751.00,,,,,,,*7D
$GPGGA,153752.00,4847.117582,N,00205.947197,E,1,08,1.4,158.16,M,47.29,M,,*60
$GPVTG,282.6,T,,,012.81,N,023.72,K,A*40
$GPGSV,3,1,09,03,38,278,44,06,20,087,38,15,73,145,44,16,77,250,44*77
$GPGSV,3,2,09,18,27,121,39,21,58,068,44,25,10,205,38,33,31,202,*7D
$GPGSV,3,3,09,22,09,154,36,,,,,,,,,,,,*4C
$GPGSA,M,3,03,06,15,16,18,21,25,22,,,,,2.1,1.4,1.6*34
$GPZDA,153752.17,23,11,2005,00,00*61
$GPGRS,153752.00,1,0.4,-1.1,-1.2,0.3,1.5,0.1,-1.9,0.8,,,,*65
$GPGST,153752.00,,,,,,,*7E
$GPGGA,153753.00,4847.118397,N,00205.941709,E,1,08,1.4,158.14,M,47.29,M,,*69
$GPVTG,282.8,T,,,013.95,N,025.84,K,A*45
$GPGSV,3,1,09,03,38,278,44,06,20,087,38,15,73,145,44,16,77,249,44*7F
$GPGSV,3,2,09,18,27,121,39,21,58,068,45,25,10,205,38,33,31,202,*7C
$GPGSV,3,3,09,22,09,154,36,,,,,,,,,,,,*4C
$GPGSA,M,3,03,06,15,16,18,21,25,22,,,,,2.1,1.4,1.6*34
$GPZDA,153753.17,23,11,2005,00,00*60
$GPGRS,153753.00,1,0.4,-1.1,-1.2,0.3,1.5,0.1,-1.9,0.8,,,,*64
$GPGST,153753.00,,,,,,,*7F
$GPGGA,153754.00,4847.119305,N,00205.935769,E,1,08,1.4,158.11,M,47.29,M,,*64
$GPVTG,283.3,T,,,015.06,N,027.89,K,A*4C
$GPGSV,3,1,09,03,38,278,44,06,20,087,38,15,73,145,44,16,77,249,44*7F
$GPGSV,3,2,09,18,27,121,38,21,58,068,44,25,10,205,37,33,31,202,*73
$GPGSV,3,3,09,22,09,154,35,,,,,,,,,,,,*4F
$GPGSA,M,3,03,06,15,16,18,21,25,22,,,,,2.1,1.4,1.6*34
$GPZDA,153754.16,23,11,2005,00,00*66
$GPGRS,153754.00,1,0.4,-1.1,-1.2,0.3,1.5,0.1,-1.9,0.8,,,,*63
$GPGST,153754.00,,,,,,,*78
$GPGGA,153755.00,4847.120287,N,00205.929410,E,1,08,1.4,158.09,M,47.29,M,,*6D
$GPVTG,283.0,T,,,016.04,N,029.71,K,A*47
$GPGSV,3,1,09,03,38,278,44,06,20,087,38,15,73,145,44,16,77,249,44*7F
$GPGSV,3,2,09,18,27,121,38,21,58,068,45,25,10,205,36,33,31,202,*73
$GPGSV,3,3,09,22,09,154,36,,,,,,,,,,,,*4C
$GPGSA,M,3,03,06,15,16,18,21,25,22,,,,,2.1,1.4,1.6*34
$GPZDA,153755.15,23,11,2005,00,00*64
$GPGRS,153755.00,1,0.4,-1.1,-1.2,0.3,1.5,0.1,-1.9,0.8,,,,*62
$GPGST,153755.00,,,,,,,*79
$GPGGA,153756.00,4847.121317,N,00205.922618,E,1,08,1.4,158.04,M,47.29,M,,*6B
$GPVTG,282.8,T,,,017.16,N,031.77,K,A*43
$GPGSV,3,1,09,03,38,278,44,06,20,087,38,15,73,145,44,16,77,249,44*7F
$GPGSV,3,2,09,18,27,121,39,21,58,068,44,25,10,205,35,33,31,202,*70
$GPGSV,3,3,09,22,09,154,36,,,,,,,,,,,,*4C
$GPGSA,M,3,03,06,15,16,18,21,25,22,,,,,2.1,1.4,1.6*34
$GPZDA,153756.16,23,11,2005,00,00*64
$GPGRS,153756.00,1,0.4,-1.1,-1.2,0.3,1.5,0.1,-1.9,0.8,,,,*61
$GPGST,153756.00,,,,,,,*7A
$GPGGA,153757.00,4847.122409,N,00205.915352,E,1,08,1.4,157.97,M,47.29,M,,*6B
$GPVTG,282.8,T,,,018.32,N,033.93,K,A*42
$GPGSV,3,1,09,03,38,278,44,06,20,087,38,15,73,145,44,16,77,249,44*7F
$GPGSV,3,2,09,18,27,121,39,21,58,068,45,25,10,205,36,37,00,000,*74
$GPGSV,3,3,09,22,09,154,36,,,,,,,,,,,,*4C
$GPGSA,M,3,03,06,15,16,18,21,25,22,,,,,2.1,1.4,1.6*34
$GPZDA,153757.17,23,11,2005,00,00*64
$GPGRS,153757.00,1,0.4,-1.1,-1.2,0.3,1.5,0.1,-1.9,0.8,,,,*60
$GPGST,153757.00,,,,,,,*7B
$GPGGA,153758.00,4847.123596,N,00205.907642,E,1,08,1.4,157.90,M,47.29,M,,*62
$GPVTG,283.4,T,,,019.35,N,035.84,K,A*49
$GPGSV,3,1,09,03,38,278,45,06,20,087,38,15,73,145,45,16,77,249,44*7F
$GPGSV,3,2,09,18,27,121,39,21,58,068,45,25,10,205,36,37,35,153,*75
$GPGSV,3,3,09,22,09,154,36,,,,,,,,,,,,*4C
$GPGSA,M,3,03,06,15,16,18,21,25,22,,,,,2.1,1.4,1.6*34
$GPZDA,153758.15,23,11,2005,00,00*69
$GPGRS,153758.00,1,0.4,-1.1,-1.2,0.3,1.5,0.1,-1.9,0.8,,,,*6F
$GPGST,153758.00,,,,,,,*74
$GPGGA,153759.00,4847.124893,N,00205.899507,E,1,08,1.4,157.84,M,47.29,M,,*6D
$GPVTG,283.7,T,,,020.47,N,037.91,K,A*43
$GPGSV,3,1,09,03,38,278,45,06,20,087,39,15,73,145,45,16,77,249,44*7E
$GPGSV,3,2,09,18,27,121,39,21,58,068,45,25,10,205,36,37,35,153,*75
$GPGSV,3,3,09,22,09,154,36,,,,,,,,,,,,*4C
$GPGSA,M,3,03,06,15,16,18,21,25,22,,,,,2.1,1.4,1.6*34
$GPZDA,153759.15,23,11,2005,00,00*68
$GPGRS,153759.00,1,0.4,-1.1,-1.2,0.3,1.5,0.1,-1.9,0.8,,,,*6E
$GPGST,153759.00,,,,,,,*75
$GPGGA,153800.00,4847.126267,N,00205.890954,E,1,08,1.4,157.75,M,47.29,M,,*60
$GPVTG,283.6,T,,,021.43,N,039.70,K,A*46
$GPGSV,3,1,09,03,38,278,45,06,20,087,38,15,73,145,45,16,77,249,44*7F
$GPGSV,3,2,09,18,27,121,39,21,57,068,45,25,10,205,36,37,35,153,*7A
$GPGSV,3,3,09,22,09,154,36,,,,,,,,,,,,*4C
$GPGSA,M,3,03,06,15,16,18,21,25,22,,,,,2.1,1.4,1.6*34
$GPZDA,153800.15,23,11,2005,00,00*6B
$GPGRS,153800.00,1,0.4,-1.1,-1.2,0.3,1.5,0.1,-1.9,0.8,,,,*6D
$GPGST,153800.00,,,,,,,*76
$GPGGA,153801.00,4847.127684,N,00205.882002,E,1,08,1.4,157.64,M,47.29,M,,*60
$GPVTG,283.5,T,,,022.37,N,041.42,K,A*4B
$GPGSV,3,1,09,03,38,278,45,06,20,087,38,15,73,145,45,16,77,249,44*7F
$GPGSV,3,2,09,18,27,121,39,21,57,068,45,25,10,205,35,37,35,153,*79
$GPGSV,3,3,09,22,09,154,37,,,,,,,,,,,,*4D
$GPGSA,M,3,03,06,15,16,18,21,25,22,,,,,2.1,1.4,1.6*34
$GPZDA,153801.15,23,11,2005,00,00*6A
$GPGRS,153801.00,1,0.4,-1.1,-1.2,0.3,1.5,0.1,-1.9,0.8,,,,*6C
$GPGST,153801.00,,,,,,,*77
$GPGGA,153802.00,4847.129140,N,00205.872679,E,1,08,1.4,157.61,M,47.29,M,,*62
$GPVTG,283.3,T,,,023.23,N,043.02,K,A*4F
$GPGSV,3,1,09,03,38,278,45,06,20,087,39,15,73,145,45,16,77,249,44*7E
$GPGSV,3,2,09,18,27,121,40,21,57,068,45,25,10,205,35,37,35,153,*77
$GPGSV,3,3,09,22,09,154,38,,,,,,,,,,,,*42
$GPGSA,M,3,03,06,15,16,18,21,25,22,,,,,2.1,1.4,1.6*34
$GPZDA,153802.17,23,11,2005,00,00*6B
$GPGRS,153802.00,1,0.4,-1.1,-1.2,0.3,1.5,0.1,-1.9,0.8,,,,*6F
$GPGST,153802.00,,,,,,,*74
$GPGGA,153803.00,4847.130711,N,00205.863062,E,1,08,1.4,157.61,M,47.29,M,,*65
$GPVTG,284.5,T,,,023.96,N,044.38,K,A*4E
$GPGSV,3,1,09,03,38,278,44,06,20,087,39,15,73,145,45,16,77,249,44*7F
$GPGSV,3,2,09,18,27,121,40,21,57,068,45,25,10,205,35,37,35,153,*77
$GPGSV,3,3,09,22,09,154,36,,,,,,,,,,,,*4C
$GPGSA,M,3,03,06,15,16,18,21,25,22,,,,,2.1,1.4,1.6*34
$GPZDA,153803.16,23,11,2005,00,00*6B
$GPGRS,153803.00,1,0.4,-1.1,-1.2,0.3,1.5,0.1,-1.9,0.8,,,,*6E
$GPGST,153803.00,,,,,,,*75
$GPGGA,153804.00,4847.132390,N,00205.853177,E,1,08,1.4,157.59,M,47.29,M,,*60
$GPVTG,284.3,T,,,024.64,N,045.64,K,A*4A
$GPGSV,3,1,09,03,38,278,44,06,20,087,40,15,73,145,45,16,77,249,44*71
$GPGSV,3,2,09,18,27,121,40,21,57,068,45,25,10,205,34,37,35,153,*76
$GPGSV,3,3,09,22,09,154,37,,,,,,,,,,,,*4D
$GPGSA,M,3,03,06,15,16,18,21,25,22,,,,,2.1,1.4,1.6*34
$GPZDA,153804.15,23,11,2005,00,00*6F
$GPGRS,153804.00,1,0.4,-1.1,-1.2,0.3,1.5,0.1,-1.9,0.8,,,,*69
$GPGST,153804.00,,,,,,,*72
$GPGGA,153805.00,4847.134195,N,00205.842990,E,1,08,1.4,157.56,M,47.29,M,,*6E
$GPVTG,285.6,T,,,025.59,N,047.40,K,A*45
$GPGSV,3,1,09,03,38,278,44,06,20,087,39,15,73,145,45,16,77,249,44*7F
$GPGSV,3,2,09,18,27,121,40,21,57,068,45,25,10,205,34,37,35,153,*76
$GPGSV,3,3,09,22,09,154,36,,,,,,,,,,,,*4C
$GPGSA,M,3,03,06,15,16,18,21,25,22,,,,,2.1,1.4,1.6*34
$GPZDA,153805.15,23,11,2005,00,00*6E
$GPGRS,153805.00,1,0.4,-1.1,-1.2,0.3,1.5,0.1,-1.9,0.8,,,,*68
$GPGST,153805.00,,,,,,,*73
$GPGGA,153806.00,4847.136201,N,00205.832579,E,1,08,1.4,157.48,M,47.29,M,,*62
$GPVTG,287.0,T,,,026.11,N,048.35,K,A*43
$GPGSV,3,1,09,03,38,278,44,06,20,087,40,15,73,145,45,16,77,249,44*71
$GPGSV,3,2,09,18,27,121,40,21,57,068,45,25,10,205,35,37,35,153,*77
$GPGSV,3,3,09,22,09,154,36,,,,,,,,,,,,*4C
$GPGSA,M,3,03,06,15,16,18,21,25,22,,,,,2.1,1.4,1.6*34
$GPZDA,153806.16,23,11,2005,00,00*6E
$GPGRS,153806.00,1,0.4,-1.1,-1.2,0.3,1.5,0.1,-1.9,0.8,,,,*6B
$GPGST,153806.00,,,,,,,*70
$GPGGA,153807.00,4847.138571,N,00205.822053,E,1,08,1.4,157.33,M,47.29,M,,*6D
$GPVTG,290.5,T,,,026.87,N,049.77,K,A*48
$GPGSV,3,1,09,03,38,278,44,06,20,087,39,15,73,145,44,16,77,249,44*7E
$GPGSV,3,2,09,18,27,121,40,21,57,068,45,25,10,205,36,37,35,153,*74
$GPGSV,3,3,09,22,09,154,36,,,,,,,,,,,,*4C
$GPGSA,M,3,03,06,15,16,18,21,25,22,,,,,2.1,1.4,1.6*34
$GPZDA,153807.16,23,11,2005,00,00*6F
$GPGRS,153807.00,1,0.4,-1.1,-1.2,0.3,1.5,0.1,-1.9,0.8,,,,*6A
$GPGST,153807.00,,,,,,,*71
$GPGGA,153808.00,4847.141311,N,00205.811416,E,1,08,1.4,157.22,M,47.29,M,,*69
$GPVTG,292.0,T,,,027.49,N,050.92,K,A*4F
$GPGSV,3,1,09,03,38,278,44,06,20,087,39,15,73,145,44,16,77,249,44*7E
$GPGSV,3,2,09,18,27,121,39,21,57,068,45,25,10,205,36,37,35,153,*7A
$GPGSV,3,3,09,22,09,154,36,,,,,,,,,,,,*4C
$GPGSA,M,3,03,06,15,16,18,21,25,22,,,,,2.1,1.4,1.6*34
$GPZDA,153808.15,23,11,2005,00,00*63
$GPGRS,153808.00,1,0.4,-1.1,-1.2,0.3,1.5,0.1,-1.9,0.8,,,,*65
$GPGST,153808.00,,,,,,,*7E
$GPGGA,153809.00,4847.144381,N,00205.800718,E,1,08,1.4,157.24,M,47.29,M,,*6F
$GPVTG,294.6,T,,,028.10,N,052.05,K,A*40
$GPGSV,3,1,09,03,38,278,45,06,20,087,40,15,73,145,45,16,77,249,44*70
$GPGSV,3,2,09,18,27,121,40,21,57,068,46,25,10,205,34,37,35,153,*75
$GPGSV,3,3,09,22,09,154,36,,,,,,,,,,,,*4C
$GPGSA,M,3,03,06,15,16,18,21,25,22,,,,,2.1,1.4,1.6*34
$GPZDA,153809.15,23,11,2005,00,00*62
$GPGRS,153809.00,1,0.4,-1.1,-1.2,0.3,1.5,0.1,-1.9,0.8,,,,*64
$GPGST,153809.00,,,,,,,*7F
$GPGGA,153810.00,4847.147888,N,00205.790137,E,1,08,1.4,157.32,M,47.29,M,,*6C
$GPVTG,298.4,T,,,028.35,N,052.51,K,A*48
$GPGSV,3,1,09,03,38,278,44,06,20,087,40,15,73,145,45,16,77,249,44*71
$GPGSV,3,2,09,18,27,121,40,21,57,068,46,25,10,205,33,37,35,153,*72
$GPGSV,3,3,09,22,09,154,36,,,,,,,,,,,,*4C
$GPGSA,M,3,03,06,15,16,18,21,25,22,,,,,2.1,1.4,1.6*34
$GPZDA,153810.15,23,11,2005,00,00*6A
$GPGRS,153810.00,1,0.4,-1.1,-1.2,0.3,1.5,0.1,-1.9,0.8,,,,*6C
$GPGST,153810.00,,,,,,,*77
$GPGGA,153811.00,4847.151839,N,00205.779745,E,1,08,1.4,157.36,M,47.29,M,,*60
$GPVTG,301.2,T,,,028.79,N,053.31,K,A*40
$GPGSV,3,1,09,03,38,278,44,06,20,087,39,15,73,145,45,16,77,249,44*7F
$GPGSV,3,2,09,18,27,121,40,21,57,068,46,25,10,205,32,37,35,153,*73
$GPGSV,3,3,09,22,09,154,37,,,,,,,,,,,,*4D
$GPGSA,M,3,03,06,15,16,18,21,25,22,,,,,2.1,1.4,1.6*34
$GPZDA,153811.15,23,11,2005,00,00*6B
$GPGRS,153811.00,1,0.4,-1.1,-1.2,0.3,1.5,0.1,-1.9,0.8,,,,*6D
$GPGST,153811.00,,,,,,,*76
$GPGGA,153812.00,4847.156179,N,00205.769503,E,1,08,1.4,157.40,M,47.29,M,,*69
$GPVTG,304.0,T,,,029.17,N,054.02,K,A*49
$GPGSV,3,1,09,03,38,278,44,06,20,087,38,15,73,145,45,16,77,249,44*7E
$GPGSV,3,2,09,18,27,121,40,21,57,068,46,25,10,205,36,37,35,153,*77
$GPGSV,3,3,09,22,09,154,35,,,,,,,,,,,,*4F
$GPGSA,M,3,03,06,15,16,18,21,25,22,,,,,2.1,1.4,1.6*34
$GPZDA,153812.17,23,11,2005,00,00*6A
$GPGRS,153812.00,1,0.4,-1.1,-1.2,0.3,1.5,0.1,-1.9,0.8,,,,*6E
$GPGST,153812.00,,,,,,,*75
$GPGGA,153813.00,4847.160720,N,00205.759307,E,1,07,1.5,157.20,M,47.29,M,,*6E
$GPVTG,306.3,T,,,029.65,N,054.92,K,A*44
$GPGSV,3,1,09,03,38,278,44,06,20,087,39,15,73,145,45,16,77,249,44*7F
$GPGSV,3,2,09,18,27,121,40,21,57,068,46,25,10,205,31,37,35,153,*70
$GPGSV,3,3,09,22,09,154,37,,,,,,,,,,,,*4D
$GPGSA,M,3,03,06,15,16,18,21,22,,,,,,2.3,1.5,1.7*31
$GPZDA,153813.15,23,11,2005,00,00*69
$GPGRS,153813.00,1,0.0,-1.0,-1.2,0.3,1.1,0.5,-0.3,,,,,*47
$GPGST,153813.00,,,,,,,*74
$GPGGA,153814.00,4847.165805,N,00205.749385,E,1,08,1.4,157.32,M,47.29,M,,*62
$GPVTG,308.1,T,,,030.01,N,055.58,K,A*45
$GPGSV,3,1,09,03,38,278,45,06,20,087,41,15,73,145,45,16,77,249,44*71
$GPGSV,3,2,09,18,27,121,40,21,57,068,46,25,10,205,36,37,35,153,*77
$GPGSV,3,3,09,22,09,154,36,,,,,,,,,,,,*4C
$GPGSA,M,3,03,06,15,16,18,21,25,22,,,,,2.1,1.4,1.6*34
$GPZDA,153814.16,23,11,2005,00,00*6D
$GPGRS,153814.00,1,0.4,-1.1,-1.2,0.3,1.5,0.1,-1.9,0.8,,,,*68
$GPGST,153814.00,,,,,,,*73
$GPGGA,153815.00,4847.171072,N,00205.739499,E,1,08,1.4,157.47,M,47.29,M,,*61
$GPVTG,309.1,T,,,030.37,N,056.24,K,A*49
$GPGSV,3,1,09,03,38,278,45,06,20,087,40,15,73,145,45,16,77,249,44*70
$GPGSV,3,2,09,18,27,121,41,21,57,068,47,25,10,205,33,37,35,153,*72
$GPGSV,3,3,09,22,09,154,34,,,,,,,,,,,,*4E
$GPGSA,M,3,03,06,15,16,18,21,25,22,,,,,2.1,1.4,1.6*34
$GPZDA,153815.15,23,11,2005,00,00*6F
$GPGRS,153815.00,1,0.4,-1.1,-1.2,0.3,1.5,0.1,-1.9,0.8,,,,*69
$GPGST,153815.00,,,,,,,*72
$GPGGA,153816.00,4847.176450,N,00205.729576,E,1,08,1.4,157.67,M,47.29,M,,*62
$GPVTG,309.3,T,,,030.67,N,056.79,K,A*46
$GPGSV,3,1,09,03,38,278,45,06,20,087,41,15,73,145,45,16,77,249,44*71
$GPGSV,3,2,09,18,27,121,41,21,57,068,46,25,10,205,33,37,35,153,*73
$GPGSV,3,3,09,22,09,154,37,,,,,,,,,,,,*4D
$GPGSA,M,3,03,06,15,16,18,21,25,22,,,,,2.1,1.4,1.6*34
$GPZDA,153816.16,23,11,2005,00,00*6F
$GPGRS,153816.00,1,0.4,-1.1,-1.2,0.3,1.5,0.1,-1.9,0.8,,,,*6A
$GPGST,153816.00,,,,,,,*71
$GPGGA,153817.00,4847.181750,N,00205.719360,E,1,08,1.4,157.79,M,47.29,M,,*65
$GPVTG,306.7,T,,,031.11,N,057.61,K,A*45
$GPGSV,3,1,09,03,38,278,45,06,20,087,39,15,73,145,44,16,77,249,44*7F
$GPGSV,3,2,09,18,27,121,40,21,57,068,46,25,10,205,36,37,35,153,*77
$GPGSV,3,3,09,22,09,154,37,,,,,,,,,,,,*4D
$GPGSA,M,3,03,06,15,16,18,21,25,22,,,,,2.1,1.4,1.6*34
$GPZDA,153817.16,23,11,2005,00,00*6E
$GPGRS,153817.00,1,0.4,-1.1,-1.2,0.3,1.5,0.1,-1.9,0.8,,,,*6B
$GPGST,153817.00,,,,,,,*70
$GPGGA,153818.00,4847.186750,N,00205.708606,E,1,08,1.4,157.90,M,47.29,M,,*6F
$GPVTG,303.4,T,,,031.47,N,058.28,K,A*42
$GPGSV,3,1,09,03,38,278,44,06,20,087,38,15,73,145,44,16,77,248,45*7F
$GPGSV,3,2,09,18,27,120,40,21,57,068,45,25,10,205,37,37,35,153,*74
$GPGSV,3,3,09,22,09,154,37,,,,,,,,,,,,*4D
$GPGSA,M,3,03,06,15,16,18,21,25,22,,,,,2.1,1.4,1.6*34
$GPZDA,153818.16,23,11,2005,00,00*61
$GPGRS,153818.00,1,0.4,-1.1,-1.2,0.3,1.5,0.1,-1.9,0.8,,,,*64
$GPGST,153818.00,,,,,,,*7F
$GPGGA,153819.00,4847.191290,N,00205.697230,E,1,08,1.4,158.04,M,47.29,M,,*65
$GPVTG,298.5,T,,,031.81,N,058.91,K,A*48
$GPGSV,3,1,09,03,38,278,44,06,20,087,38,15,73,145,43,16,77,248,45*78
$GPGSV,3,2,09,18,27,120,40,21,57,068,45,25,10,205,35,37,35,153,*76
$GPGSV,3,3,09,22,09,154,38,,,,,,,,,,,,*42
$GPGSA,M,3,03,06,15,16,18,21,25,22,,,,,2.1,1.4,1.6*34
$GPZDA,153819.15,23,11,2005,00,00*63
$GPGRS,153819.00,1,0.4,-1.1,-1.2,0.3,1.5,0.1,-1.9,0.8,,,,*65
$GPGST,153819.00,,,,,,,*7E
$GPGGA,153820.00,4847.195281,N,00205.685238,E,1,08,1.4,158.20,M,47.29,M,,*66
$GPVTG,294.8,T,,,032.11,N,059.47,K,A*49
$GPGSV,3,1,09,03,38,278,44,06,20,087,39,15,73,145,44,16,77,248,44*7F
$GPGSV,3,2,09,18,27,120,40,21,57,068,45,25,10,205,36,37,35,153,*75
$GPGSV,3,3,09,22,09,154,37,,,,,,,,,,,,*4D
$GPGSA,M,3,03,06,15,16,18,21,25,22,,,,,2.1,1.4,1.6*34
$GPZDA,153820.16,23,11,2005,00,00*6A
$GPGRS,153820.00,1,0.4,-1.1,-1.2,0.3,1.5,0.1,-1.9,0.8,,,,*6F
$GPGST,153820.00,,,,,,,*74
$GPGGA,153821.00,4847.198942,N,00205.672853,E,1,08,1.4,158.37,M,47.29,M,,*67
$GPVTG,293.3,T,,,032.47,N,060.14,K,A*4A
$GPGSV,3,1,09,03,38,278,44,06,20,087,40,15,73,145,44,16,77,248,44*71
$GPGSV,3,2,09,18,27,120,41,21,57,068,45,25,10,205,34,37,35,153,*76
$GPGSV,3,3,09,22,09,154,37,,,,,,,,,,,,*4D
$GPGSA,M,3,03,06,15,16,18,21,25,22,,,,,2.1,1.4,1.6*34
$GPZDA,153821.16,23,11,2005,00,00*6B
$GPGRS,153821.00,1,0.4,-1.1,-1.2,0.3,1.5,0.1,-2.0,0.8,,,,*64
$GPGST,153821.00,,,,,,,*75
$GPGGA,153822.00,4847.202466,N,00205.660231,E,1,08,1.4,158.48,M,47.29,M,,*6A
$GPVTG,292.5,T,,,032.76,N,060.68,K,A*44
$GPGSV,3,1,09,03,38,278,44,06,20,087,39,15,73,144,44,16,77,248,44*7E
$GPGSV,3,2,09,18,27,120,40,21,57,068,45,25,09,205,36,37,35,153,*7D
$GPGSV,3,3,09,22,09,154,35,,,,,,,,,,,,*4F
$GPGSA,M,3,03,06,15,16,18,21,25,22,,,,,2.1,1.4,1.6*34
$GPZDA,153822.17,23,11,2005,00,00*69
$GPGRS,153822.00,1,0.4,-1.1,-1.2,0.3,1.5,0.1,-1.9,0.8,,,,*6D
$GPGST,153822.00,,,,,,,*76
$GPGGA,153823.00,4847.206000,N,00205.647480,E,1,08,1.4,158.55,M,47.29,M,,*6E
$GPVTG,293.0,T,,,033.08,N,061.26,K,A*43
$GPGSV,3,1,09,03,38,278,44,06,20,087,40,15,73,144,44,16,77,248,44*70
$GPGSV,3,2,09,18,27,120,40,21,57,068,45,25,09,205,34,39,00,000,*70
$GPGSV,3,3,09,22,09,154,36,,,,,,,,,,,,*4C
$GPGSA,M,3,03,06,15,16,18,21,25,22,,,,,2.1,1.4,1.6*34
$GPZDA,153823.15,23,11,2005,00,00*6A
$GPGRS,153823.00,1,0.4,-1.1,-1.2,0.3,1.5,0.1,-1.9,0.8,,,,*6C
$GPGST,153823.00,,,,,,,*77
$GPGGA,153824.00,4847.209620,N,00205.634649,E,1,08,1.4,158.65,M,47.29,M,,*62
$GPVTG,293.2,T,,,033.35,N,061.77,K,A*4B
$GPGSV,3,1,09,03,38,278,44,06,20,087,40,15,73,144,44,16,77,248,44*70
$GPGSV,3,2,09,18,27,120,40,21,57,068,45,25,09,205,,39,29,150,*78
$GPGSV,3,3,09,22,09,154,35,,,,,,,,,,,,*4F
$GPGSA,M,3,03,06,15,16,18,21,25,22,,,,,2.1,1.4,1.6*34
$GPZDA,153824.16,23,11,2005,00,00*6E
$GPGRS,153824.00,1,0.4,-1.1,-1.2,0.3,1.5,0.1,-2.0,0.9,,,,*60
$GPGST,153824.00,,,,,,,*70
$GPGGA,153825.00,4847.213018,N,00205.621527,E,1,06,2.1,158.32,M,47.29,M,,*60
$GPVTG,292.8,T,,,033.80,N,062.61,K,A*4A
$GPGSV,3,1,09,03,38,278,43,06,20,087,39,15,73,144,45,16,77,248,44*78
$GPGSV,3,2,09,18,27,120,40,21,57,068,45,25,09,205,34,39,29,150,*7F
$GPGSV,3,3,09,22,09,154,31,,,,,,,,,,,,*4B
$GPGSA,M,3,03,06,15,16,18,21,,,,,,,2.8,2.1,1.9*33
$GPZDA,153825.14,23,11,2005,00,00*6D
$GPGRS,153825.00,1,0.0,-1.0,-1.3,0.3,0.9,0.6,,,,,,*49
$GPGST,153825.00,,,,,,,*71
$GPGGA,153826.00,4847.216558,N,00205.608279,E,1,07,1.5,158.09,M,47.29,M,,*6E
$GPVTG,292.6,T,,,034.16,N,063.27,K,A*4F
$GPGSV,3,1,09,03,38,278,44,06,20,087,38,15,73,144,45,16,77,248,44*7E
$GPGSV,3,2,09,18,27,120,40,21,57,068,45,25,09,205,35,39,29,150,*7E
$GPGSV,3,3,09,22,09,154,35,,,,,,,,,,,,*4F
$GPGSA,M,3,03,06,15,16,18,21,22,,,,,,2.3,1.5,1.7*31
$GPZDA,153826.15,23,11,2005,00,00*6F
$GPGRS,153826.00,1,0.0,-1.0,-1.3,0.3,1.1,0.5,-0.3,,,,,*40
$GPGST,153826.00,,,,,,,*72
$GPGGA,153827.00,4847.220206,N,00205.594932,E,1,07,1.5,157.96,M,47.29,M,,*6D
$GPVTG,293.0,T,,,034.54,N,063.97,K,A*45
$GPGSV,3,1,09,03,38,278,43,06,20,087,39,15,73,144,45,16,77,248,44*78
$GPGSV,3,2,09,18,27,120,40,21,57,068,45,25,09,205,33,39,29,150,*78
$GPGSV,3,3,09,22,09,154,36,,,,,,,,,,,,*4C
$GPGSA,M,3,03,06,15,16,18,21,22,,,,,,2.3,1.5,1.7*31
$GPZDA,153827.16,23,11,2005,00,00*6D
$GPGRS,153827.00,1,0.0,-1.0,-1.3,0.3,1.1,0.5,-0.3,,,,,*41
$GPGST,153827.00,,,,,,,*73
$GPGGA,153828.00,4847.223946,N,00205.581478,E,1,07,1.5,157.88,M,47.29,M,,*66
$GPVTG,293.0,T,,,034.90,N,064.63,K,A*41
$GPGSV,3,1,09,03,38,278,43,06,20,087,39,15,73,144,44,16,77,248,44*79
$GPGSV,3,2,09,18,27,120,40,21,57,068,44,25,09,205,,39,29,150,*79
$GPGSV,3,3,09,22,10,154,36,,,,,,,,,,,,*44
$GPGSA,M,3,03,06,15,16,18,21,22,,,,,,2.3,1.5,1.7*31
$GPZDA,153828.15,23,11,2005,00,00*61
$GPGRS,153828.00,1,0.0,-1.0,-1.3,0.3,1.1,0.5,-0.3,,,,,*4E
$GPGST,153828.00,,,,,,,*7C
$GPGGA,153829.00,4847.227648,N,00205.567953,E,1,06,2.1,157.72,M,47.29,M,,*6D
$GPVTG,292.7,T,,,034.88,N,064.59,K,A*47
$GPGSV,3,1,09,03,38,278,43,06,20,087,39,15,73,144,44,16,77,248,44*79
$GPGSV,3,2,09,18,27,120,40,21,57,068,45,25,09,205,,39,29,150,*78
$GPGSV,3,3,09,22,10,154,31,,,,,,,,,,,,*43
$GPGSA,M,3,03,06,15,16,18,21,,,,,,,2.8,2.1,1.9*33
$GPZDA,153829.15,23,11,2005,00,00*60
$GPGRS,153829.00,1,0.0,-1.0,-1.3,0.3,0.9,0.6,,,,,,*45
$GPGST,153829.00,,,,,,,*7D
$GPGGA,153830.00,4847.231396,N,00205.554392,E,1,06,2.1,157.50,M,47.29,M,,*63
$GPVTG,293.0,T,,,035.15,N,065.09,K,A*40
$GPGSV,3,1,09,03,38,278,43,06,20,087,38,15,73,144,44,16,77,248,44*78
$GPGSV,3,2,09,18,27,120,39,21,57,068,44,25,09,205,,39,29,150,*77
$GPGSV,3,3,09,22,10,154,32,,,,,,,,,,,,*40
$GPGSA,M,3,03,06,15,16,18,21,,,,,,,2.8,2.1,1.9*33
$GPZDA,153830.14,23,11,2005,00,00*69
$GPGRS,153830.00,1,0.0,-1.0,-1.3,0.3,0.9,0.5,,,,,,*4E
$GPGST,153830.00,,,,,,,*75
$GPGGA,153831.00,4847.235198,N,00205.540847,E,1,06,2.1,157.22,M,47.29,M,,*69
$GPVTG,293.2,T,,,034.92,N,064.66,K,A*44
$GPGSV,3,1,09,03,38,278,43,06,20,087,38,15,73,144,44,16,77,248,44*78
$GPGSV,3,2,09,18,27,120,39,21,57,068,44,25,09,205,,39,29,150,*77
$GPGSV,3,3,09,22,10,154,34,,,,,,,,,,,,*46
$GPGSA,M,3,03,06,15,16,18,21,,,,,,,2.8,2.1,1.9*33
$GPZDA,153831.14,23,11,2005,00,00*68
$GPGRS,153831.00,1,0.0,-1.0,-1.3,0.3,0.9,0.5,,,,,,*4F
$GPGST,153831.00,,,,,,,*74
$GPGGA,153832.00,4847.239028,N,00205.527508,E,1,07,1.5,157.06,M,47.29,M,,*6B
$GPVTG,293.4,T,,,034.22,N,063.38,K,A*45
$GPGSV,3,1,09,03,38,278,43,06,20,087,38,15,73,144,44,16,77,248,44*78
$GPGSV,3,2,09,18,27,120,40,21,57,068,44,25,09,205,,39,29,150,*79
$GPGSV,3,3,09,22,10,154,36,,,,,,,,,,,,*44
$GPGSA,M,3,03,06,15,16,18,21,22,,,,,,2.3,1.5,1.7*31
$GPZDA,153832.16,23,11,2005,00,00*69
$GPGRS,153832.00,1,0.0,-1.0,-1.3,0.3,1.1,0.5,-0.3,,,,,*45
$GPGST,153832.00,,,,,,,*77
$GPGGA,153833.00,4847.242741,N,00205.514437,E,1,07,1.5,156.93,M,47.29,M,,*6E
$GPVTG,293.1,T,,,033.45,N,061.94,K,A*42
$GPGSV,3,1,09,03,38,278,43,06,20,087,38,15,73,144,44,16,77,248,44*78
$GPGSV,3,2,09,18,27,120,40,21,57,068,45,25,09,205,,39,29,150,*78
$GPGSV,3,3,09,22,10,154,36,,,,,,,,,,,,*44
$GPGSA,M,3,03,06,15,16,18,21,22,,,,,,2.3,1.5,1.7*31
$GPZDA,153833.15,23,11,2005,00,00*6B
$GPGRS,153833.00,1,0.0,-1.0,-1.3,0.3,1.1,0.5,-0.3,,,,,*44
$GPGST,153833.00,,,,,,,*76
$GPGGA,153834.00,4847.246310,N,00205.501669,E,1,07,1.5,156.76,M,47.29,M,,*6B
$GPVTG,292.8,T,,,032.51,N,060.21,K,A*41
$GPGSV,3,1,09,03,38,278,43,06,20,087,37,15,73,144,45,16,77,248,44*76
$GPGSV,3,2,09,18,27,120,40,21,57,068,45,25,09,205,,39,29,150,*78
$GPGSV,3,3,09,22,10,154,36,,,,,,,,,,,,*44
$GPGSA,M,3,03,06,15,16,18,21,22,,,,,,2.3,1.5,1.7*31
$GPZDA,153834.15,23,11,2005,00,00*6C
$GPGRS,153834.00,1,0.0,-1.0,-1.3,0.3,1.1,0.5,-0.3,,,,,*43
$GPGST,153834.00,,,,,,,*71
$GPGGA,153835.00,4847.249782,N,00205.489369,E,1,07,1.5,156.58,M,47.29,M,,*62
$GPVTG,293.5,T,,,031.16,N,057.70,K,A*4D
$GPGSV,3,1,09,03,38,278,43,06,20,087,38,15,73,144,45,16,77,248,44*79
$GPGSV,3,2,09,18,27,120,40,21,57,068,45,25,09,205,,44,00,000,*7D
$GPGSV,3,3,09,22,10,154,35,,,,,,,,,,,,*47
$GPGSA,M,3,03,06,15,16,18,21,22,,,,,,2.3,1.5,1.7*31
$GPZDA,153835.15,23,11,2005,00,00*6D
$GPGRS,153835.00,1,0.0,-1.0,-1.3,0.3,1.1,0.5,-0.3,,,,,*42
$GPGST,153835.00,,,,,,,*70
$GPGGA,153836.00,4847.253134,N,00205.477614,E,1,07,1.5,156.31,M,47.29,M,,*60
$GPVTG,293.4,T,,,029.82,N,055.22,K,A*4D
$GPGSV,3,1,09,03,38,278,43,06,20,087,37,15,73,144,45,16,77,248,44*76
$GPGSV,3,2,09,18,27,120,40,21,57,068,45,25,09,205,,44,00,000,*7D
$GPGSV,3,3,09,22,10,154,35,,,,,,,,,,,,*47
$GPGSA,M,3,03,06,15,16,18,21,22,,,,,,2.3,1.5,1.7*31
$GPZDA,153836.15,23,11,2005,00,00*6E
$GPGRS,153836.00,1,0.0,-1.0,-1.3,0.3,1.1,0.5,-0.3,,,,,*41
$GPGST,153836.00,,,,,,,*73
$GPGGA,153837.00,4847.256305,N,00205.466325,E,1,07,1.5,156.12,M,47.29,M,,*62
$GPVTG,292.6,T,,,028.62,N,053.01,K,A*46
$GPGSV,3,1,09,03,38,278,43,06,20,087,38,15,73,144,45,16,77,248,44*79
$GPGSV,3,2,09,18,27,120,40,21,57,068,45,25,09,205,,44,00,000,*7D
$GPGSV,3,3,09,22,10,154,33,,,,,,,,,,,,*41
$GPGSA,M,3,03,06,15,16,18,21,22,,,,,,2.3,1.5,1.7*31
$GPZDA,153837.16,23,11,2005,00,00*6C
$GPGRS,153837.00,1,0.0,-1.0,-1.3,0.3,1.1,0.5,-0.3,,,,,*40
$GPGST,153837.00,,,,,,,*72
$GPGGA,153838.00,4847.259116,N,00205.455369,E,1,07,1.5,155.93,M,47.29,M,,*60
$GPVTG,289.4,T,,,027.43,N,050.80,K,A*48
$GPGSV,3,1,09,03,38,278,42,06,20,087,38,15,73,144,45,16,77,248,44*78
$GPGSV,3,2,09,18,27,120,40,21,57,068,45,25,09,205,,44,00,000,*7D
$GPGSV,3,3,09,22,10,154,37,,,,,,,,,,,,*45
$GPGSA,M,3,03,06,15,16,18,21,22,,,,,,2.3,1.5,1.7*31
$GPZDA,153838.14,23,11,2005,00,00*61
$GPGRS,153838.00,1,0.0,-1.0,-1.3,0.3,1.1,0.5,-0.3,,,,,*4F
$GPGST,153838.00,,,,,,,*7D
$GPGGA,153839.00,4847.261090,N,00205.444476,E,1,06,2.1,155.68,M,47.29,M,,*6E
$GPVTG,281.4,T,,,026.48,N,049.04,K,A*4E
$GPGSV,3,1,09,03,38,278,43,06,20,087,38,15,74,144,44,16,77,248,44*7F
$GPGSV,3,2,09,18,27,120,40,21,57,068,45,25,09,205,,44,00,000,*7D
$GPGSV,3,3,09,22,10,154,30,,,,,,,,,,,,*42
$GPGSA,M,3,03,06,15,16,18,21,,,,,,,2.8,2.1,1.9*33
$GPZDA,153839.14,23,11,2005,00,00*60
$GPGRS,153839.00,1,0.0,-1.0,-1.3,0.3,1.0,0.6,,,,,,*4C
$GPGST,153839.00,,,,,,,*7C
$GPGGA,153840.00,4847.261859,N,00205.433253,E,1,06,2.1,155.57,M,47.29,M,,*60
$GPVTG,270.9,T,,,027.34,N,050.64,K,A*49
$GPGSV,3,1,09,03,38,278,41,06,20,087,37,15,74,144,44,16,77,248,43*75
$GPGSV,3,2,09,18,27,120,40,21,57,068,44,25,09,205,,44,00,000,*7C
$GPGSV,3,3,09,22,10,154,30,,,,,,,,,,,,*42
$GPGSA,M,3,03,06,15,16,18,21,,,,,,,2.8,2.1,1.9*33
$GPZDA,153840.14,23,11,2005,00,00*6E
$GPGRS,153840.00,1,0.0,-1.0,-1.3,0.3,1.0,0.6,,,,,,*42
$GPGST,153840.00,,,,,,,*72
$GPGGA,153841.00,4847.261499,N,00205.421742,E,1,07,1.5,155.56,M,47.29,M,,*60
$GPVTG,263.2,T,,,027.70,N,051.29,K,A*48
$GPGSV,3,1,09,03,38,278,41,06,20,087,37,15,74,144,43,16,77,248,42*73
$GPGSV,3,2,09,18,27,120,37,21,57,068,42,25,09,205,,44,00,000,*7A
$GPGSV,3,3,09,22,10,154,35,,,,,,,,,,,,*47
$GPGSA,M,3,03,06,15,16,18,21,22,,,,,,2.3,1.5,1.7*31
$GPZDA,153841.15,23,11,2005,00,00*6E
$GPGRS,153841.00,1,0.0,-1.0,-1.3,0.3,1.1,0.5,-0.3,,,,,*41
$GPGST,153841.00,,,,,,,*73
$GPGGA,153842.00,4847.260509,N,00205.410219,E,1,07,1.5,155.63,M,47.29,M,,*65
$GPVTG,261.7,T,,,027.65,N,051.20,K,A*42
$GPGSV,3,1,09,03,38,278,40,06,20,087,37,15,74,144,42,16,77,248,42*73
$GPGSV,3,2,09,18,27,120,38,21,57,068,41,25,09,205,,37,00,000,*72
$GPGSV,3,3,09,22,10,154,33,,,,,,,,,,,,*41
$GPGSA,M,3,03,06,15,16,18,21,22,,,,,,2.3,1.5,1.7*31
$GPZDA,153842.15,23,11,2005,00,00*6D
$GPGRS,153842.00,1,0.0,-1.0,-1.3,0.3,1.1,0.5,-0.3,,,,,*42
$GPGST,153842.00,,,,,,,*70
$GPGGA,153843.00,4847.259405,N,00205.398767,E,1,07,1.5,155.62,M,47.29,M,,*69
$GPVTG,261.7,T,,,027.43,N,050.81,K,A*4C
$GPGSV,3,1,09,03,38,278,41,06,20,087,36,15,74,144,43,16,77,247,42*7D
$GPGSV,3,2,09,18,27,120,38,21,57,068,41,25,09,205,,37,35,153,*73
$GPGSV,3,3,09,22,10,154,35,,,,,,,,,,,,*47
$GPGSA,M,3,03,06,15,16,18,21,22,,,,,,2.3,1.5,1.7*31
$GPZDA,153843.14,23,11,2005,00,00*6D
$GPGRS,153843.00,1,0.0,-1.0,-1.3,0.3,1.1,0.5,-0.2,,,,,*42
$GPGST,153843.00,,,,,,,*71
$GPGGA,153844.00,4847.258581,N,00205.387374,E,1,07,1.5,155.59,M,47.29,M,,*62
$GPVTG,265.0,T,,,027.21,N,050.40,K,A*46
$GPGSV,3,1,09,03,38,278,41,06,20,087,37,15,74,144,42,16,77,247,42*7D
$GPGSV,3,2,09,18,27,120,38,21,57,068,41,25,09,205,36,37,35,153,*76
$GPGSV,3,3,09,22,10,154,34,,,,,,,,,,,,*46
$GPGSA,M,3,03,06,15,16,18,21,22,,,,,,2.3,1.5,1.7*31
$GPZDA,153844.14,23,11,2005,00,00*6A
$GPGRS,153844.00,1,0.0,-1.0,-1.3,0.3,1.1,0.5,-0.3,,,,,*44
$GPGST,153844.00,,,,,,,*76
$GPGGA,153845.00,4847.258674,N,00205.376043,E,1,07,1.5,155.57,M,47.29,M,,*6D
$GPVTG,275.7,T,,,027.03,N,050.06,K,A*42
$GPGSV,3,1,09,03,38,278,41,06,20,087,38,15,74,144,42,16,77,247,42*72
$GPGSV,3,2,09,18,27,120,38,21,57,068,42,25,09,205,34,37,35,153,*77
$GPGSV,3,3,09,22,10,154,32,,,,,,,,,,,,*40
$GPGSA,M,3,03,06,15,16,18,21,22,,,,,,2.3,1.5,1.7*31
$GPZDA,153845.14,23,11,2005,00,00*6B
$GPGRS,153845.00,1,0.0,-1.0,-1.3,0.3,1.1,0.5,-0.3,,,,,*45
$GPGST,153845.00,,,,,,,*77
$GPGGA,153846.00,4847.260285,N,00205.364948,E,1,08,1.4,155.63,M,47.29,M,,*67
$GPVTG,287.9,T,,,027.36,N,050.67,K,A*40
$GPGSV,3,1,09,03,38,278,41,06,20,087,37,15,74,144,43,16,77,247,43*7D
$GPGSV,3,2,09,18,27,120,38,21,57,068,43,25,09,205,34,37,35,153,*76
$GPGSV,3,3,09,22,10,154,33,,,,,,,,,,,,*41
$GPGSA,M,3,03,06,15,16,18,21,25,22,,,,,2.1,1.4,1.6*34
$GPZDA,153846.16,23,11,2005,00,00*6A
$GPGRS,153846.00,1,0.1,-1.0,-1.3,0.3,1.2,0.4,-3.2,-0.1,,,,*45
$GPGST,153846.00,,,,,,,*74
$GPGGA,153847.00,4847.263376,N,00205.354354,E,1,07,1.5,155.62,M,47.29,M,,*63
$GPVTG,299.4,T,,,028.03,N,051.91,K,A*43
$GPGSV,3,1,09,03,38,278,40,06,20,087,36,15,74,144,42,16,77,247,43*7C
$GPGSV,3,2,09,18,27,120,38,21,57,068,43,25,09,205,31,37,35,153,*73
$GPGSV,3,3,09,22,10,154,35,,,,,,,,,,,,*47
$GPGSA,M,3,03,06,15,16,18,21,22,,,,,,2.3,1.5,1.7*31
$GPZDA,153847.16,23,11,2005,00,00*6B
$GPGRS,153847.00,1,0.0,-1.0,-1.3,0.3,1.1,0.5,-0.3,,,,,*47
$GPGST,153847.00,,,,,,,*75
$GPGGA,153848.00,4847.267551,N,00205.344230,E,1,07,1.5,155.55,M,47.29,M,,*6D
$GPVTG,304.2,T,,,028.84,N,053.42,K,A*43
$GPGSV,3,1,09,03,38,278,41,06,20,087,36,15,74,144,43,16,77,247,43*7C
$GPGSV,3,2,09,18,27,120,38,21,57,068,43,25,09,205,30,37,35,153,*72
$GPGSV,3,3,09,22,10,154,36,,,,,,,,,,,,*44
$GPGSA,M,3,03,06,15,16,18,21,22,,,,,,2.3,1.5,1.7*31
$GPZDA,153848.15,23,11,2005,00,00*67
$GPGRS,153848.00,1,0.0,-1.0,-1.3,0.3,1.1,0.5,-0.3,,,,,*48
$GPGST,153848.00,,,,,,,*7A
$GPGGA,153849.00,4847.272462,N,00205.334307,E,1,08,1.4,155.57,M,47.29,M,,*67
$GPVTG,306.3,T,,,029.85,N,055.29,K,A*4B
$GPGSV,3,1,09,03,38,278,42,06,20,087,30,15,74,144,43,16,77,247,42*78
$GPGSV,3,2,09,18,27,120,39,21,57,068,42,25,09,205,35,37,35,153,*77
$GPGSV,3,3,09,22,10,154,35,,,,,,,,,,,,*47
$GPGSA,M,3,03,06,15,16,18,21,25,22,,,,,2.1,1.4,1.6*34
$GPZDA,153849.16,23,11,2005,00,00*65
$GPGRS,153849.00,1,0.3,-1.1,-1.2,0.4,1.5,0.1,-2.0,0.7,,,,*65
$GPGST,153849.00,,,,,,,*7B
$GPGGA,153850.00,4847.277823,N,00205.324329,E,1,07,1.9,154.94,M,47.29,M,,*62
$GPVTG,306.5,T,,,030.61,N,056.70,K,A*40
$GPGSV,3,1,09,03,38,278,42,06,20,087,29,15,74,144,43,16,77,247,42*70
$GPGSV,3,2,09,18,27,120,38,21,57,068,42,25,09,205,36,37,35,153,*75
$GPGSV,3,3,09,22,10,154,34,,,,,,,,,,,,*46
$GPGSA,M,3,03,15,16,18,21,25,22,,,,,,2.9,1.9,2.2*30
$GPZDA,153850.15,23,11,2005,00,00*6E
$GPGRS,153850.00,1,0.1,-0.9,0.7,0.9,-0.5,-1.8,0.3,,,,,*4E
$GPGST,153850.00,,,,,,,*73
$GPGGA,153851.00,4847.283184,N,00205.314020,E,1,07,1.9,154.58,M,47.29,M,,*65
$GPVTG,306.5,T,,,031.32,N,058.00,K,A*4E
$GPGSV,3,1,09,03,38,278,42,06,20,087,,15,74,144,43,16,77,247,43*7A
$GPGSV,3,2,09,18,27,120,38,21,57,068,42,25,09,205,35,37,35,153,*76
$GPGSV,3,3,09,22,10,154,35,,,,,,,,,,,,*47
$GPGSA,M,3,03,15,16,18,21,25,22,,,,,,2.9,1.9,2.2*30
$GPZDA,153851.14,23,11,2005,00,00*6E
$GPGRS,153851.00,1,0.1,-0.9,0.7,0.9,-0.5,-1.8,0.3,,,,,*4F
$GPGST,153851.00,,,,,,,*72
$GPGGA,153852.00,4847.288542,N,00205.303440,E,1,07,1.9,154.33,M,47.29,M,,*6A
$GPVTG,306.3,T,,,031.79,N,058.88,K,A*47
$GPGSV,3,1,09,03,38,278,42,06,20,087,,15,74,144,43,16,77,247,43*7A
$GPGSV,3,2,09,18,27,120,38,21,57,068,42,25,09,205,33,37,35,153,*70
$GPGSV,3,3,09,22,10,154,35,,,,,,,,,,,,*47
$GPGSA,M,3,03,15,16,18,21,25,22,,,,,,2.9,1.9,2.2*30
$GPZDA,153852.16,23,11,2005,00,00*6F
$GPGRS,153852.00,1,0.2,-0.9,0.7,0.9,-0.5,-1.8,0.3,,,,,*4F
$GPGST,153852.00,,,,,,,*71
$GPGGA,153853.00,4847.293730,N,00205.292596,E,1,06,2.1,153.97,M,47.29,M,,*66
$GPVTG,306.5,T,,,032.03,N,059.32,K,A*4F
$GPGSV,3,1,09,03,38,278,42,06,20,087,,15,74,144,42,16,77,247,43*7B
$GPGSV,3,2,09,18,27,120,38,21,57,068,42,25,09,205,29,37,35,153,*7B
$GPGSV,3,3,09,22,10,154,35,,,,,,,,,,,,*47
$GPGSA,M,3,03,15,16,18,21,22,,,,,,,3.0,2.1,2.2*34
$GPZDA,153853.14,23,11,2005,00,00*6C
$GPGRS,153853.00,1,-0.2,-1.0,0.7,0.6,-0.2,-0.6,,,,,,*41
$GPGST,153853.00,,,,,,,*70
$GPGGA,153854.00,4847.299123,N,00205.281820,E,1,07,1.9,153.93,M,47.29,M,,*63
$GPVTG,306.2,T,,,032.12,N,059.49,K,A*44
$GPGSV,3,1,09,03,38,278,43,06,20,087,,15,74,144,42,16,77,247,43*7A
$GPGSV,3,2,09,18,27,120,39,21,57,068,42,25,09,205,32,37,35,153,*70
$GPGSV,3,3,09,22,10,154,33,,,,,,,,,,,,*41
$GPGSA,M,3,03,15,16,18,21,25,22,,,,,,2.9,1.9,2.2*30
$GPZDA,153854.15,23,11,2005,00,00*6A
$GPGRS,153854.00,1,0.2,-0.9,0.7,0.9,-0.5,-1.8,0.3,,,,,*49
$GPGST,153854.00,,,,,,,*77
$GPGGA,153855.00,4847.304434,N,00205.271020,E,1,07,1.9,153.83,M,47.29,M,,*62
$GPVTG,306.2,T,,,031.88,N,059.04,K,A*4D
$GPGSV,3,1,09,03,38,278,43,06,20,087,,15,74,144,43,16,77,247,43*7B
$GPGSV,3,2,09,18,27,120,39,21,57,068,42,25,09,205,32,37,35,153,*70
$GPGSV,3,3,09,22,10,154,35,,,,,,,,,,,,*47
$GPGSA,M,3,03,15,16,18,21,25,22,,,,,,2.9,1.9,2.2*30
$GPZDA,153855.15,23,11,2005,00,00*6B
$GPGRS,153855.00,1,0.1,-0.9,0.7,0.9,-0.5,-1.8,0.4,,,,,*4C
$GPGST,153855.00,,,,,,,*76
$GPGGA,153856.00,4847.309669,N,00205.260239,E,1,07,1.9,153.81,M,47.29,M,,*6E
$GPVTG,305.9,T,,,031.77,N,058.83,K,A*4B
$GPGSV,3,1,09,03,38,278,43,06,20,087,36,15,74,144,43,16,77,247,44*79
$GPGSV,3,2,09,18,27,120,38,21,57,068,43,25,09,205,31,37,35,153,*73
$GPGSV,3,3,09,22,10,154,35,,,,,,,,,,,,*47
$GPGSA,M,3,03,15,16,18,21,25,22,,,,,,2.9,1.9,2.2*30
$GPZDA,153856.14,23,11,2005,00,00*69
$GPGRS,153856.00,1,0.1,-0.9,0.7,0.9,-0.5,-1.8,0.4,,,,,*4F
$GPGST,153856.00,,,,,,,*75
$GPGGA,153857.00,4847.314684,N,00205.249305,E,1,08,1.4,153.89,M,47.29,M,,*6F
$GPVTG,303.8,T,,,031.67,N,058.66,K,A*46
$GPGSV,3,1,09,03,38,278,43,06,20,087,35,15,74,144,43,16,77,247,44*7A
$GPGSV,3,2,09,18,27,120,38,21,57,068,43,25,09,205,31,37,35,153,*73
$GPGSV,3,3,09,22,10,154,35,,,,,,,,,,,,*47
$GPGSA,M,3,03,06,15,16,18,21,25,22,,,,,2.1,1.4,1.6*34
$GPZDA,153857.17,23,11,2005,00,00*6B
$GPGRS,153857.00,1,0.2,-2.4,-1.0,0.7,1.0,-0.5,-1.8,0.4,,,,*48
$GPGST,153857.00,,,,,,,*74
$GPGGA,153858.00,4847.319168,N,00205.237956,E,1,08,1.4,154.17,M,47.29,M,,*6D
$GPVTG,300.8,T,,,031.61,N,058.54,K,A*42
$GPGSV,3,1,09,03,38,278,43,06,20,087,38,15,74,144,43,16,77,247,44*77
$GPGSV,3,2,09,18,27,120,38,21,57,068,43,25,09,205,34,37,35,153,*76
$GPGSV,3,3,09,22,10,154,36,,,,,,,,,,,,*44
$GPGSA,M,3,03,06,15,16,18,21,25,22,,,,,2.1,1.4,1.6*34
$GPZDA,153858.15,23,11,2005,00,00*66
$GPGRS,153858.00,1,0.3,-1.3,-1.2,0.4,1.5,0.0,-1.9,0.7,,,,*6C
$GPGST,153858.00,,,,,,,*7B
$GPGGA,153859.00,4847.323376,N,00205.226443,E,1,08,1.4,154.20,M,47.29,M,,*65
$GPVTG,299.3,T,,,031.25,N,057.87,K,A*49
$GPGSV,3,1,09,03,38,278,43,06,20,087,39,15,74,144,43,16,77,247,43*71
$GPGSV,3,2,09,18,27,120,38,21,57,068,43,25,09,205,,37,35,153,*71
$GPGSV,3,3,09,22,10,154,36,,,,,,,,,,,,*44
$GPGSA,M,3,03,06,15,16,18,21,25,22,,,,,2.1,1.4,1.6*34
$GPZDA,153859.15,23,11,2005,00,00*67
$GPGRS,153859.00,1,0.4,-1.2,-1.3,0.4,1.6,0.0,-2.3,0.8,,,,*6F
$GPGST,153859.00,,,,,,,*7A
$GPGGA,153900.00,4847.327292,N,00205.214917,E,1,08,1.4,154.35,M,47.29,M,,*6E
$GPVTG,296.6,T,,,030.53,N,056.55,K,A*4D
$GPGSV,3,1,09,03,38,278,43,06,20,087,39,15,74,144,43,16,77,247,43*71
$GPGSV,3,2,09,18,27,120,39,21,57,068,43,25,09,205,,37,35,153,*70
$GPGSV,3,3,09,22,10,154,33,,,,,,,,,,,,*41
$GPGSA,M,3,03,06,15,16,18,21,25,22,,,,,2.1,1.4,1.6*34
$GPZDA,153900.16,23,11,2005,00,00*69
$GPGRS,153900.00,1,0.5,-1.2,-1.2,0.4,1.7,-0.1,-3.1,1.3,,,,*46
$GPGST,153900.00,,,,,,,*77
$GPGGA,153901.00,4847.330507,N,00205.203224,E,1,07,1.5,154.34,M,47.29,M,,*60
$GPVTG,293.8,T,,,029.77,N,055.13,K,A*49
$GPGSV,3,1,09,03,38,278,43,06,20,087,37,15,74,144,43,16,77,247,43*7F
$GPGSV,3,2,09,18,27,120,38,21,57,068,43,25,09,205,,37,35,153,*71
$GPGSV,3,3,09,22,10,154,,,,,,,,,,,,,*41
$GPGSA,M,3,03,06,15,16,18,21,22,,,,,,2.3,1.5,1.7*31
$GPZDA,153901.15,23,11,2005,00,00*6B
$GPGRS,153901.00,1,0.0,-1.1,-1.3,0.3,1.2,0.4,-0.5,,,,,*41
$GPGST,153901.00,,,,,,,*76
$GPGGA,153902.00,4847.333596,N,00205.191867,E,1,07,1.5,154.55,M,47.29,M,,*6A
$GPVTG,294.3,T,,,028.72,N,053.20,K,A*47
$GPGSV,3,1,09,03,38,278,43,06,20,087,38,15,74,144,43,16,77,247,43*70
$GPGSV,3,2,09,18,27,120,39,21,57,068,44,25,09,205,,37,35,153,*77
$GPGSV,3,3,09,22,10,154,,,,,,,,,,,,,*41
$GPGSA,M,3,03,06,15,16,18,21,22,,,,,,2.3,1.5,1.7*31
$GPZDA,153902.16,23,11,2005,00,00*6B
$GPGRS,153902.00,1,0.1,-1.0,-1.3,0.3,1.4,0.3,-0.9,,,,,*4F
$GPGST,153902.00,,,,,,,*75
$GPGGA,153903.00,4847.336258,N,00205.181139,E,1,06,2.1,154.31,M,47.29,M,,*6C
$GPVTG,292.0,T,,,026.20,N,048.52,K,A*44
$GPGSV,3,1,09,03,38,278,43,06,20,087,38,15,74,143,44,16,77,247,43*70
$GPGSV,3,2,09,18,27,120,38,21,57,068,43,25,09,205,,37,35,153,*71
$GPGSV,3,3,09,22,10,154,,,,,,,,,,,,,*41
$GPGSA,M,3,03,06,15,16,18,21,,,,,,,2.9,2.1,1.9*32
$GPZDA,153903.14,23,11,2005,00,00*68
$GPGRS,153903.00,1,0.0,-1.1,-1.3,0.3,1.0,0.6,,,,,,*45
$GPGST,153903.00,,,,,,,*74
$GPGGA,153904.00,4847.338564,N,00205.171275,E,1,06,2.1,153.85,M,47.29,M,,*61
$GPVTG,290.4,T,,,023.77,N,044.02,K,A*4C
$GPGSV,3,1,09,03,38,278,43,06,20,087,36,15,74,143,44,16,77,247,44*79
$GPGSV,3,2,09,18,27,120,38,21,57,068,44,25,09,205,,37,35,153,*76
$GPGSV,3,3,09,22,10,154,,,,,,,,,,,,,*41
$GPGSA,M,3,03,06,15,16,18,21,,,,,,,2.9,2.1,1.9*32
$GPZDA,153904.14,23,11,2005,00,00*6F
$GPGRS,153904.00,1,0.0,-1.1,-1.4,0.3,1.0,0.6,,,,,,*45
$GPGST,153904.00,,,,,,,*73
$GPGGA,153905.00,4847.340387,N,00205.161992,E,1,06,2.1,153.35,M,47.29,M,,*6C
$GPVTG,284.8,T,,,022.40,N,041.49,K,A*4A
$GPGSV,3,1,09,03,38,278,43,06,20,087,37,15,74,143,43,16,77,247,43*78
$GPGSV,3,2,09,18,27,120,38,21,57,068,44,25,09,205,,37,35,153,*76
$GPGSV,3,3,09,22,10,154,,,,,,,,,,,,,*41
$GPGSA,M,3,03,06,15,16,18,21,,,,,,,2.9,2.1,1.9*32
$GPZDA,153905.14,23,11,2005,00,00*6E
$GPGRS,153905.00,1,0.0,-1.1,-1.3,0.3,1.0,0.6,,,,,,*43
$GPGST,153905.00,,,,,,,*72
$GPGGA,153906.00,4847.341384,N,00205.152702,E,1,06,2.1,152.86,M,47.29,M,,*63
$GPVTG,274.8,T,,,022.41,N,041.50,K,A*4C
$GPGSV,3,1,09,03,38,278,42,06,20,087,37,15,74,143,44,16,77,247,43*7E
$GPGSV,3,2,09,18,27,120,38,21,57,068,44,25,09,205,,37,35,153,*76
$GPGSV,3,3,09,22,10,154,,,,,,,,,,,,,*41
$GPGSA,M,3,03,06,15,16,18,21,,,,,,,2.9,2.1,1.9*32
$GPZDA,153906.14,23,11,2005,00,00*6D
$GPGRS,153906.00,1,0.0,-1.1,-1.4,0.3,1.0,0.6,,,,,,*47
$GPGST,153906.00,,,,,,,*71
$GPGGA,153907.00,4847.341085,N,00205.143464,E,1,06,2.1,152.43,M,47.29,M,,*6A
$GPVTG,260.2,T,,,021.80,N,040.38,K,A*42
$GPGSV,3,1,09,03,38,278,43,06,20,087,37,15,74,143,43,16,77,247,43*78
$GPGSV,3,2,09,18,27,120,37,21,57,068,42,25,09,205,,37,35,153,*7F
$GPGSV,3,3,09,22,10,154,,,,,,,,,,,,,*41
$GPGSA,M,3,03,06,15,16,18,21,,,,,,,2.9,2.1,1.9*32
$GPZDA,153907.16,23,11,2005,00,00*6E
$GPGRS,153907.00,1,0.0,-1.1,-1.4,0.3,1.0,0.6,,,,,,*46
$GPGST,153907.00,,,,,,,*70
$GPGGA,153908.00,4847.339209,N,00205.134708,E,1,06,2.1,152.11,M,47.29,M,,*62
$GPVTG,244.6,T,,,022.18,N,041.08,K,A*40
$GPGSV,3,1,09,03,38,278,43,06,20,087,37,15,74,143,43,16,77,247,44*7F
$GPGSV,3,2,09,18,27,120,39,21,57,068,40,25,09,205,,33,00,000,*76
$GPGSV,3,3,09,22,10,154,,,,,,,,,,,,,*41
$GPGSA,M,3,03,06,15,16,18,21,,,,,,,2.9,2.1,1.9*32
$GPZDA,153908.15,23,11,2005,00,00*62
$GPGRS,153908.00,1,0.0,-1.1,-1.4,0.3,1.0,0.6,,,,,,*49
$GPGST,153908.00,,,,,,,*7F
$GPGGA,153909.00,4847.335823,N,00205.127005,E,1,06,2.1,151.98,M,47.29,M,,*67
$GPVTG,228.3,T,,,022.10,N,040.93,K,A*44
$GPGSV,3,1,09,03,38,278,42,06,20,087,37,15,74,143,43,16,77,247,43*79
$GPGSV,3,2,09,18,27,120,39,21,57,068,40,25,09,205,,33,00,000,*76
$GPGSV,3,3,09,22,10,154,,,,,,,,,,,,,*41
$GPGSA,M,3,03,06,15,16,18,21,,,,,,,2.9,2.1,1.9*32
$GPZDA,153909.15,23,11,2005,00,00*63
$GPGRS,153909.00,1,0.0,-1.1,-1.4,0.3,1.0,0.6,,,,,,*48
$GPGST,153909.00,,,,,,,*7E
$GPGGA,153910.00,4847.331123,N,00205.121036,E,1,06,2.1,151.88,M,47.29,M,,*65
$GPVTG,212.0,T,,,022.39,N,041.47,K,A*4D
$GPGSV,3,1,09,03,38,278,42,06,20,087,37,15,74,143,44,16,77,247,43*7E
$GPGSV,3,2,09,18,27,120,39,21,57,068,41,25,09,205,,33,31,202,*75
$GPGSV,3,3,09,22,10,154,,,,,,,,,,,,,*41
$GPGSA,M,3,03,06,15,16,18,21,,,,,,,2.9,2.1,1.9*32
$GPZDA,153910.14,23,11,2005,00,00*6A
$GPGRS,153910.00,1,0.0,-1.1,-1.4,0.3,1.0,0.6,,,,,,*40
$GPGST,153910.00,,,,,,,*76
$GPGGA,153911.00,4847.325405,N,00205.117225,E,1,06,2.1,151.76,M,47.29,M,,*64
$GPVTG,196.0,T,,,022.92,N,042.45,K,A*42
$GPGSV,3,1,09,03,38,278,41,06,20,087,36,15,74,143,44,16,77,247,43*7C
$GPGSV,3,2,09,18,27,120,40,21,57,068,42,25,09,205,,33,31,202,*78
$GPGSV,3,3,09,22,10,154,,,,,,,,,,,,,*41
$GPGSA,M,3,03,06,15,16,18,21,,,,,,,2.9,2.1,1.9*32
$GPZDA,153911.14,23,11,2005,00,00*6B
$GPGRS,153911.00,1,0.0,-1.1,-1.4,0.3,1.0,0.6,,,,,,*41
$GPGST,153911.00,,,,,,,*77
$GPGGA,153912.00,4847.319055,N,00205.115901,E,1,06,2.1,151.63,M,47.29,M,,*62
$GPVTG,180.0,T,,,023.57,N,043.66,K,A*4D
$GPGSV,3,1,09,03,38,278,40,06,20,087,34,15,74,143,44,16,77,246,43*7E
$GPGSV,3,2,09,18,27,120,40,21,57,067,42,25,09,205,,33,31,202,*77
$GPGSV,3,3,09,22,10,154,,,,,,,,,,,,,*41
$GPGSA,M,3,03,06,15,16,18,21,,,,,,,2.9,2.1,1.9*32
$GPZDA,153912.16,23,11,2005,00,00*6A
$GPGRS,153912.00,1,0.0,-1.1,-1.4,0.3,1.0,0.6,,,,,,*42
$GPGST,153912.00,,,,,,,*74
$GPGGA,153913.00,4847.312500,N,00205.117281,E,1,06,2.1,151.55,M,47.29,M,,*69
$GPVTG,164.2,T,,,024.35,N,045.10,K,A*41
$GPGSV,3,1,09,03,38,278,41,06,20,087,37,15,74,143,44,16,77,246,43*7C
$GPGSV,3,2,09,18,27,120,41,21,57,067,43,25,09,205,,33,31,202,*77
$GPGSV,3,3,09,22,10,154,,,,,,,,,,,,,*41
$GPGSA,M,3,03,06,15,16,18,21,,,,,,,2.9,2.1,1.9*32
$GPZDA,153913.15,23,11,2005,00,00*68
$GPGRS,153913.00,1,0.0,-1.1,-1.4,0.3,1.0,0.6,,,,,,*43
$GPGST,153913.00,,,,,,,*75
$GPGGA,153914.00,4847.306184,N,00205.121220,E,1,06,2.1,151.60,M,47.29,M,,*6B
$GPVTG,150.6,T,,,025.06,N,046.40,K,A*45
$GPGSV,3,1,09,03,39,278,42,06,20,087,35,15,74,143,44,16,77,246,43*7C
$GPGSV,3,2,09,18,27,120,39,21,57,067,44,25,09,205,,33,31,202,*7F
$GPGSV,3,3,09,22,10,154,,,,,,,,,,,,,*41
$GPGSA,M,3,03,06,15,16,18,21,,,,,,,2.9,2.1,1.9*32
$GPZDA,153914.14,23,11,2005,00,00*6E
$GPGRS,153914.00,1,0.0,-1.1,-1.4,0.3,1.0,0.6,,,,,,*44
$GPGST,153914.00,,,,,,,*72
$GPGGA,153915.00,4847.300353,N,00205.127149,E,1,06,2.1,151.73,M,47.29,M,,*6C
$GPVTG,141.5,T,,,025.64,N,047.49,K,A*4A
$GPGSV,3,1,09,03,39,278,41,06,20,087,35,15,74,143,43,16,77,246,43*78
$GPGSV,3,2,09,18,27,120,39,21,57,067,43,25,09,205,,33,31,202,*78
$GPGSV,3,3,09,22,10,154,,,,,,,,,,,,,*41
$GPGSA,M,3,03,06,15,16,18,21,,,,,,,2.9,2.1,1.9*32
$GPZDA,153915.14,23,11,2005,00,00*6F
$GPGRS,153915.00,1,0.0,-1.1,-1.4,0.3,1.0,0.6,,,,,,*45
$GPGST,153915.00,,,,,,,*73
$GPGGA,153916.00,4847.294887,N,00205.134281,E,1,06,2.1,151.86,M,47.29,M,,*6E
$GPVTG,137.1,T,,,026.29,N,048.69,K,A*48
$GPGSV,3,1,09,03,39,278,41,06,20,087,36,15,74,143,43,16,77,246,42*7A
$GPGSV,3,2,09,18,27,120,39,21,57,067,43,25,09,205,,33,31,202,*78
$GPGSV,3,3,09,22,10,154,,,,,,,,,,,,,*41
$GPGSA,M,3,03,06,15,16,18,21,,,,,,,2.9,2.1,1.9*32
$GPZDA,153916.15,23,11,2005,00,00*6D
$GPGRS,153916.00,1,0.0,-1.1,-1.4,0.3,1.0,0.6,,,,,,*46
$GPGST,153916.00,,,,,,,*70
$GPGGA,153917.00,4847.289444,N,00205.141983,E,1,06,2.1,151.99,M,47.29,M,,*65
$GPVTG,136.7,T,,,027.28,N,050.53,K,A*4F
$GPGSV,3,1,09,03,39,278,41,06,20,087,36,15,74,143,43,16,77,246,42*7A
$GPGSV,3,2,09,18,27,120,39,21,57,067,43,25,09,205,,33,31,202,*78
$GPGSV,3,3,09,22,10,154,,,,,,,,,,,,,*41
$GPGSA,M,3,03,06,15,16,18,21,,,,,,,2.9,2.1,1.9*32
$GPZDA,153917.17,23,11,2005,00,00*6E
$GPGRS,153917.00,1,0.0,-1.1,-1.4,0.3,1.0,0.6,,,,,,*47
$GPGST,153917.00,,,,,,,*71
$GPGGA,153918.00,4847.283889,N,00205.150067,E,1,06,2.1,152.08,M,47.29,M,,*65
$GPVTG,135.4,T,,,028.14,N,052.11,K,A*4B
$GPGSV,3,1,09,03,39,278,40,06,20,087,36,15,74,143,42,16,77,246,42*7A
$GPGSV,3,2,09,18,27,120,38,21,57,067,43,25,09,205,,33,31,202,*79
$GPGSV,3,3,09,22,10,154,,,,,,,,,,,,,*41
$GPGSA,M,3,03,06,15,16,18,21,,,,,,,2.9,2.1,1.9*32
$GPZDA,153918.16,23,11,2005,00,00*60
$GPGRS,153918.00,1,0.0,-1.1,-1.4,0.3,1.0,0.6,,,,,,*48
$GPGST,153918.00,,,,,,,*7E
$GPGGA,153919.00,4847.278179,N,00205.158486,E,1,06,2.1,152.23,M,47.29,M,,*6C
$GPVTG,135.8,T,,,029.23,N,054.13,K,A*46
$GPGSV,3,1,09,03,39,278,36,06,20,087,38,15,74,143,41,16,77,246,40*74
$GPGSV,3,2,09,18,27,120,38,21,57,067,42,25,09,205,,33,31,202,*78
$GPGSV,3,3,09,22,10,154,,,,,,,,,,,,,*41
$GPGSA,M,3,03,06,15,16,18,21,,,,,,,2.9,2.1,1.9*32
$GPZDA,153919.14,23,11,2005,00,00*63
$GPGRS,153919.00,1,0.0,-1.1,-1.4,0.3,1.0,0.6,,,,,,*49
$GPGST,153919.00,,,,,,,*7F
$GPGGA,153920.00,4847.272376,N,00205.166860,E,1,06,2.1,151.82,M,47.29,M,,*60
$GPVTG,136.9,T,,,028.34,N,052.48,K,A*4B
$GPGSV,3,1,09,03,39,278,31,06,20,087,37,15,74,143,40,16,77,246,39*73
$GPGSV,3,2,09,18,27,120,38,21,57,067,42,25,09,205,,33,31,202,*78
$GPGSV,3,3,09,22,10,154,,,,,,,,,,,,,*41
$GPGSA,M,3,03,06,15,16,18,21,,,,,,,2.9,2.1,1.9*32
$GPZDA,153920.14,23,11,2005,00,00*69
$GPGRS,153920.00,1,0.0,-1.1,-1.4,0.3,1.0,0.6,,,,,,*43
$GPGST,153920.00,,,,,,,*75
$GPGGA,153921.00,4847.266449,N,00205.175470,E,1,06,2.1,151.34,M,47.29,M,,*6D
$GPVTG,136.0,T,,,029.97,N,055.50,K,A*44
$GPGSV,3,1,09,03,39,278,34,06,20,087,37,15,74,143,41,16,77,246,39*77
$GPGSV,3,2,09,18,27,120,39,21,57,067,42,25,09,205,,39,29,150,*7E
$GPGSV,3,3,09,22,10,154,,,,,,,,,,,,,*41
$GPGSA,M,3,03,06,15,16,18,21,,,,,,,2.9,2.1,1.9*32
$GPZDA,153921.14,23,11,2005,00,00*68
$GPGRS,153921.00,1,0.0,-1.1,-1.3,0.3,1.0,0.6,,,,,,*45
$GPGST,153921.00,,,,,,,*74
$GPGGA,153922.00,4847.260244,N,00205.184680,E,1,06,2.1,151.72,M,47.29,M,,*62
$GPVTG,135.6,T,,,031.58,N,058.49,K,A*4E
$GPGSV,3,1,09,03,39,278,42,06,20,087,37,15,74,143,41,16,77,246,40*78
$GPGSV,3,2,09,18,27,120,38,21,57,067,42,25,09,205,,39,29,150,*7F
$GPGSV,3,3,09,22,10,154,,,,,,,,,,,,,*41
$GPGSA,M,3,03,06,15,16,18,21,,,,,,,2.9,2.1,1.9*32
$GPZDA,153922.15,23,11,2005,00,00*6A
$GPGRS,153922.00,1,0.0,-1.1,-1.4,0.3,1.0,0.6,,,,,,*41
$GPGST,153922.00,,,,,,,*77
$GPGGA,153923.00,4847.253886,N,00205.194083,E,1,06,2.1,152.24,M,47.29,M,,*63
$GPVTG,135.9,T,,,031.84,N,058.96,K,A*42
$GPGSV,3,1,09,03,39,278,37,06,20,087,38,15,74,143,41,16,77,246,40*75
$GPGSV,3,2,09,18,27,120,39,21,57,067,42,25,09,205,,39,29,150,*7E
$GPGSV,3,3,09,22,10,154,,,,,,,,,,,,,*41
$GPGSA,M,3,03,06,15,16,18,21,,,,,,,2.9,2.1,1.9*32
$GPZDA,153923.15,23,11,2005,00,00*6B
$GPGRS,153923.00,1,0.0,-1.1,-1.4,0.3,1.0,0.6,,,,,,*40
$GPGST,153923.00,,,,,,,*76
$GPGGA,153924.00,4847.247496,N,00205.203456,E,1,06,2.1,152.60,M,47.29,M,,*6D
$GPVTG,136.0,T,,,031.84,N,058.97,K,A*49
$GPGSV,3,1,09,03,39,278,36,06,20,087,37,15,74,143,41,16,77,246,40*7B
$GPGSV,3,2,09,18,27,120,39,21,57,067,42,25,09,205,,39,29,150,*7E
$GPGSV,3,3,09,22,10,154,,,,,,,,,,,,,*41
$GPGSA,M,3,03,06,15,16,18,21,,,,,,,2.9,2.1,1.9*32
$GPZDA,153924.14,23,11,2005,00,00*6D
$GPGRS,153924.00,1,0.0,-1.1,-1.4,0.3,1.0,0.6,,,,,,*47
$GPGST,153924.00,,,,,,,*71
$GPGGA,153925.00,4847.241124,N,00205.212744,E,1,06,2.1,152.84,M,47.29,M,,*6C
$GPVTG,136.3,T,,,031.51,N,058.35,K,A*4A
$GPGSV,3,1,09,03,39,278,39,06,20,087,38,15,74,143,42,16,77,246,40*78
$GPGSV,3,2,09,18,27,120,39,21,57,067,42,25,09,205,,39,29,150,*7E
$GPGSV,3,3,09,22,10,154,,,,,,,,,,,,,*41
$GPGSA,M,3,03,06,15,16,18,21,,,,,,,2.9,2.1,1.9*32
$GPZDA,153925.14,23,11,2005,00,00*6C
$GPGRS,153925.00,1,0.0,-1.1,-1.4,0.3,1.0,0.6,,,,,,*46
$GPGST,153925.00,,,,,,,*70
$GPGGA,153926.00,4847.234784,N,00205.221951,E,1,06,2.1,153.08,M,47.29,M,,*6E
$GPVTG,136.2,T,,,031.42,N,058.19,K,A*47
$GPGSV,3,1,09,03,39,278,38,06,20,087,38,15,74,143,41,16,77,246,41*7B
$GPGSV,3,2,09,18,27,120,39,21,57,067,42,25,09,205,,39,29,150,*7E
$GPGSV,3,3,09,22,10,154,,,,,,,,,,,,,*41
$GPGSA,M,3,03,06,15,16,18,21,,,,,,,2.9,2.1,1.9*32
$GPZDA,153926.14,23,11,2005,00,00*6F
$GPGRS,153926.00,1,0.0,-1.1,-1.4,0.3,1.0,0.6,,,,,,*45
$GPGST,153926.00,,,,,,,*73
$GPGGA,153927.00,4847.228531,N,00205.231154,E,1,06,2.1,153.35,M,47.29,M,,*6C
$GPVTG,135.3,T,,,031.15,N,057.68,K,A*4E
$GPGSV,3,1,09,03,39,278,40,06,20,087,38,15,74,143,42,16,77,246,41*77
$GPGSV,3,2,09,18,27,120,39,21,57,067,43,25,09,205,,39,29,150,*7F
$GPGSV,3,3,09,22,10,154,,,,,,,,,,,,,*41
$GPGSA,M,3,03,06,15,16,18,21,,,,,,,2.9,2.1,1.9*32
$GPZDA,153927.16,23,11,2005,00,00*6C
$GPGRS,153927.00,1,0.0,-1.1,-1.4,0.3,1.0,0.6,,,,,,*44
$GPGST,153927.00,,,,,,,*72
$GPGGA,153928.00,4847.222729,N,00205.240787,E,1,06,2.1,153.53,M,47.29,M,,*6C
$GPVTG,129.3,T,,,030.79,N,057.03,K,A*45
$GPGSV,3,1,09,03,39,278,40,06,20,087,37,15,74,143,43,16,77,246,42*7A
$GPGSV,3,2,09,18,27,120,40,21,57,067,43,25,09,205,,39,29,150,*71
$GPGSV,3,3,09,22,10,154,,,,,,,,,,,,,*41
$GPGSA,M,3,03,06,15,16,18,21,,,,,,,2.9,2.1,1.9*32
$GPZDA,153928.16,23,11,2005,00,00*63
$GPGRS,153928.00,1,0.0,-1.1,-1.4,0.3,1.0,0.6,,,,,,*4B
$GPGST,153928.00,,,,,,,*7D
$GPGGA,153929.00,4847.217858,N,00205.251302,E,1,06,2.1,153.69,M,47.29,M,,*62
$GPVTG,120.6,T,,,030.32,N,056.15,K,A*40
$GPGSV,3,1,09,03,39,278,40,06,20,087,37,15,74,143,43,16,77,246,41*79
$GPGSV,3,2,09,18,27,120,39,21,57,067,44,25,09,205,,39,29,150,*78
$GPGSV,3,3,09,22,10,154,,,,,,,,,,,,,*41
$GPGSA,M,3,03,06,15,16,18,21,,,,,,,2.9,2.1,1.9*32
$GPZDA,153929.14,23,11,2005,00,00*60
$GPGRS,153929.00,1,0.0,-1.1,-1.4,0.3,1.0,0.6,,,,,,*4A
$GPGST,153929.00,,,,,,,*7C
$GPGGA,153930.00,4847.214374,N,00205.262794,E,1,06,2.1,153.88,M,47.29,M,,*68
$GPVTG,108.5,T,,,030.00,N,055.56,K,A*4C
$GPGSV,3,1,09,03,39,278,40,06,20,087,38,15,74,143,43,16,77,246,42*75
$GPGSV,3,2,09,18,27,120,39,21,57,067,44,25,09,205,,39,29,150,*78
$GPGSV,3,3,09,22,10,154,,,,,,,,,,,,,*41
$GPGSA,M,3,03,06,15,16,18,21,,,,,,,2.9,2.1,1.9*32
$GPZDA,153930.14,23,11,2005,00,00*68
$GPGRS,153930.00,1,0.0,-1.1,-1.4,0.3,1.0,0.6,,,,,,*42
$GPGST,153930.00,,,,,,,*74
$GPGGA,153931.00,4847.212241,N,00205.274879,E,1,06,2.1,154.04,M,47.29,M,,*60
$GPVTG,101.5,T,,,029.53,N,054.70,K,A*4E
$GPGSV,3,1,09,03,39,278,40,06,20,087,38,15,74,143,43,16,77,246,42*75
$GPGSV,3,2,09,18,27,120,39,21,57,067,44,25,09,205,,39,29,150,*78
$GPGSV,3,3,09,22,10,154,,,,,,,,,,,,,*41
$GPGSA,M,3,03,06,15,16,18,21,,,,,,,2.9,2.1,1.9*32
$GPZDA,153931.15,23,11,2005,00,00*68
$GPGRS,153931.00,1,0.0,-1.1,-1.4,0.3,1.0,0.6,,,,,,*43
$GPGST,153931.00,,,,,,,*75
$GPGGA,153932.00,4847.210724,N,00205.287057,E,1,06,2.1,154.08,M,47.29,M,,*63
$GPVTG,100.0,T,,,029.34,N,054.34,K,A*4B
$GPGSV,3,1,09,03,39,278,41,06,20,087,38,15,74,143,43,16,77,246,42*74
$GPGSV,3,2,09,18,27,120,39,21,57,067,45,25,09,205,,44,00,000,*7C
$GPGSV,3,3,09,22,10,154,,,,,,,,,,,,,*41
$GPGSA,M,3,03,06,15,16,18,21,,,,,,,2.9,2.1,1.9*32
$GPZDA,153932.16,23,11,2005,00,00*68
$GPGRS,153932.00,1,0.0,-1.1,-1.4,0.3,1.0,0.6,,,,,,*40
$GPGST,153932.00,,,,,,,*76
$GPGGA,153933.00,4847.209088,N,00205.299142,E,1,06,2.1,154.05,M,47.29,M,,*6C
$GPVTG,103.3,T,,,029.31,N,054.28,K,A*43
$GPGSV,3,1,09,03,39,278,42,06,20,087,39,15,74,143,44,16,77,246,43*70
$GPGSV,3,2,09,18,27,120,39,21,57,067,45,25,09,205,,44,00,000,*7C
$GPGSV,3,3,09,22,10,154,,,,,,,,,,,,,*41
$GPGSA,M,3,03,06,15,16,18,21,,,,,,,2.9,2.1,1.9*32
$GPZDA,153933.15,23,11,2005,00,00*6A
$GPGRS,153933.00,1,0.0,-1.1,-1.4,0.3,1.0,0.6,,,,,,*41
$GPGST,153933.00,,,,,,,*77
$GPGGA,153934.00,4847.206967,N,00205.311009,E,1,06,2.1,154.07,M,47.29,M,,*61
$GPVTG,107.1,T,,,029.19,N,054.05,K,A*40
$GPGSV,3,1,09,03,39,278,42,06,20,087,39,15,74,143,44,16,77,246,43*70
$GPGSV,3,2,09,18,27,120,40,21,57,067,45,25,09,205,,44,00,000,*72
$GPGSV,3,3,09,22,10,154,,,,,,,,,,,,,*41
$GPGSA,M,3,03,06,15,16,18,21,,,,,,,2.9,2.1,1.9*32
$GPZDA,153934.14,23,11,2005,00,00*6C
$GPGRS,153934.00,1,0.0,-1.1,-1.4,0.3,1.0,0.6,,,,,,*46
$GPGST,153934.00,,,,,,,*70
$GPGGA,153935.00,4847.204280,N,00205.322575,E,1,06,2.1,154.01,M,47.29,M,,*68
$GPVTG,111.7,T,,,029.19,N,054.05,K,A*41
$GPGSV,3,1,09,03,39,278,42,06,20,087,39,15,74,143,45,16,77,246,43*71
$GPGSV,3,2,09,18,27,120,40,21,57,067,46,25,09,205,,44,00,000,*71
$GPGSV,3,3,09,22,10,154,,,,,,,,,,,,,*41
$GPGSA,M,3,03,06,15,16,18,21,,,,,,,2.9,2.1,1.9*32
$GPZDA,153935.14,23,11,2005,00,00*6D
$GPGRS,153935.00,1,0.0,-1.0,-1.4,0.3,1.0,0.6,,,,,,*46
$GPGST,153935.00,,,,,,,*71
$GPGGA,153936.00,4847.201147,N,00205.333863,E,1,07,1.5,153.92,M,47.29,M,,*67
$GPVTG,113.8,T,,,029.10,N,053.90,K,A*4E
$GPGSV,3,1,09,03,39,278,43,06,20,087,39,15,74,143,45,16,77,246,43*70
$GPGSV,3,2,09,18,27,120,40,21,57,067,45,25,09,205,,44,00,000,*72
$GPGSV,3,3,09,22,10,154,38,,,,,,,,,,,,*4A
$GPGSA,M,3,03,06,15,16,18,21,22,,,,,,2.3,1.5,1.7*31
$GPZDA,153936.16,23,11,2005,00,00*6C
$GPGRS,153936.00,1,0.0,-1.0,-1.4,0.3,1.0,0.6,-0.7,,,,,*41
$GPGST,153936.00,,,,,,,*72
$GPGGA,153937.00,4847.197861,N,00205.345045,E,1,06,2.1,153.84,M,47.29,M,,*6B
$GPVTG,113.8,T,,,029.10,N,053.89,K,A*46
$GPGSV,3,1,09,03,39,278,43,06,20,087,39,15,74,143,44,16,77,245,43*72
$GPGSV,3,2,09,18,27,120,40,21,57,067,45,25,09,205,,44,00,000,*72
$GPGSV,3,3,09,22,10,154,39,,,,,,,,,,,,*4B
$GPGSA,M,3,03,06,15,16,18,21,,,,,,,2.9,2.1,1.9*32
$GPZDA,153937.16,23,11,2005,00,00*6D
$GPGRS,153937.00,1,0.0,-1.1,-1.4,0.3,1.0,0.6,,,,,,*45
$GPGST,153937.00,,,,,,,*73
$GPGGA,153938.00,4847.194692,N,00205.356079,E,1,07,1.5,153.80,M,47.29,M,,*6A
