$GPGGA,153726.40,4847.114606,N,00205.967725,E,1,08,1.4,158.28,M,47.29,M,,*6B
$GPVTG,349.0,T,,,000.10,N,000.19,K,A*47
$GPGSA,M,3,03,06,15,16,18,21,25,22,,,,,2.1,1.4,1.6*34
$GPGGA,153726.60,4847.114613,N,00205.967717,E,1,08,1.4,158.27,M,47.29,M,,*63
$GPVTG,323.1,T,,,000.20,N,000.38,K,A*4A
$GPGSA,M,3,03,06,15,16,18,21,25,22,,,,,2.1,1.4,1.6*34
$GPGGA,153726.80,4847.114614,N,00205.967722,E,1,08,1.4,158.26,M,47.29,M,,*6D
$GPVTG,67.0,T,,,000.08,N,000.14,K,A*7C
$GPGSA,M,3,03,06,15,16,18,21,25,22,,,,,2.1,1.4,1.6*34
$GPGGA,153727.00,4847.114606,N,00205.967720,E,1,08,1.4,158.30,M,47.29,M,,*62
$GPVTG,352.9,T,,,000.19,N,000.35,K,A*43
$GPGSV,3,1,09,03,38,278,45,06,21,087,38,15,73,146,46,16,77,250,45*77
$GPGSV,3,2,09,18,27,121,40,21,58,068,45,25,10,205,38,37,29,155,*7E
$GPGSV,3,3,09,22,09,154,36,,,,,,,,,,,,*4C
$GPGSA,M,3,03,06,15,16,18,21,25,22,,,,,2.1,1.4,1.6*34
$GPZDA,153727.57,23,11,2005,00,00*67
$GPGRS,153727.00,1,0.4,-1.0,-1.1,0.3,1.5,0.1,-1.8,0.7,,,,*6B
$GPGST,153727.00,2.9,4.5,2.2,88.5,4.5,2.2,5.3*6A
$GPGGA,153727.60,4847.114620,N,00205.967720,E,1,08,1.4,158.29,M,47.29,M,,*68
$GPVTG,351.1,T,,,000.14,N,000.25,K,A*44
$GPGSA,M,3,03,06,15,16,18,21,25,22,,,,,2.1,1.4,1.6*34
$GPGGA,153727.80,4847.114621,N,00205.967716,E,1,08,1.4,158.27,M,47.29,M,,*6C
$GPVTG,290.2,T,,,000.15,N,000.28,K,A*47
$GPGSA,M,3,03,06,15,16,18,21,25,22,,,,,2.1,1.4,1.6*34
$GPGGA,153728.00,4847.114601,N,00205.967721,E,1,08,1.4,158.31,M,47.29,M,,*6A
$GPVTG,342.8,T,,,000.07,N,000.13,K,A*48
$GPGSV,3,1,09,03,38,278,45,06,21,087,38,15,73,146,45,16,77,250,45*74
$GPGSV,3,2,09,18,27,121,40,21,58,068,44,25,10,205,37,37,29,155,*70
$GPGSV,3,3,09,22,09,154,37,,,,,,,,,,,,*4D
$GPGSA,M,3,03,06,15,16,18,21,25,22,,,,,2.1,1.4,1.6*34
$GPZDA,153728.45,23,11,2005,00,00*6B
$GPGRS,153728.00,1,0.4,-1.0,-1.1,0.3,1.5,0.1,-1.8,0.7,,,,*64
$GPGST,153728.00,2.9,4.5,2.2,88.5,4.5,2.2,5.3*65
$GPGGA,153728.40,4847.114595,N,00205.967727,E,1,08,1.4,158.32,M,47.29,M,,*65
$GPVTG,177.5,T,,,000.11,N,000.21,K,A*47
$GPGSA,M,3,03,06,15,16,18,21,25,22,,,,,2.1,1.4,1.6*34
$GPGGA,153728.60,4847.114586,N,00205.967728,E,1,08,1.4,158.33,M,47.29,M,,*6B
$GPVTG,176.9,T,,,000.16,N,000.30,K,A*4D
$GPGSA,M,3,03,06,15,16,18,21,25,22,,,,,2.1,1.4,1.6*34
$GPGGA,153728.80,4847.114588,N,00205.967727,E,1,08,1.4,158.33,M,47.29,M,,*64
$GPVTG,343.9,T,,,000.03,N,000.05,K,A*4B
$GPGSA,M,3,03,06,15,16,18,21,25,22,,,,,2.1,1.4,1.6*34
$GPGGA,153729.00,4847.114596,N,00205.967721,E,1,08,1.4,158.31,M,47.29,M,,*66
$GPVTG,143.9,T,,,000.07,N,000.14,K,A*4D
$GPGSV,3,1,09,03,38,278,45,06,21,087,39,15,73,146,44,16,77,250,45*74
$GPGSV,3,2,09,18,27,121,40,21,58,068,44,25,10,205,37,37,29,155,*70
$GPGSV,3,3,09,22,09,154,37,,,,,,,,,,,,*4D
$GPGSA,M,3,03,06,15,16,18,21,25,22,,,,,2.1,1.4,1.6*34
$GPZDA,153729.49,23,11,2005,00,00*66
$GPGRS,153729.00,1,0.4,-1.0,-1.1,0.3,1.5,0.1,-1.8,0.7,,,,*65
$GPGST,153729.00,2.9,4.5,2.2,88.5,4.5,2.2,5.3*64
$GPGGA,153729.40,4847.114590,N,00205.967720,E,1,08,1.4,158.29,M,47.29,M,,*6C
$GPVTG,25.5,T,,,000.19,N,000.36,K,A*7F
$GPGSA,M,3,03,06,15,16,18,21,25,22,,,,,2.1,1.4,1.6*34
$GPGGA,153729.60,4847.114589,N,00205.967728,E,1,08,1.4,158.28,M,47.29,M,,*6F
$GPVTG,104.7,T,,,000.09,N,000.17,K,A*4D
$GPGSA,M,3,03,06,15,16,18,21,25,22,,,,,2.1,1.4,1.6*34
$GPGGA,153729.80,4847.114595,N,00205.967724,E,1,08,1.4,158.28,M,47.29,M,,*60
$GPVTG,340.7,T,,,000.14,N,000.26,K,A*41
$GPGSA,M,3,03,06,15,16,18,21,25,22,,,,,2.1,1.4,1.6*34
$GPGGA,153730.00,4847.114589,N,00205.967714,E,1,08,1.4,158.32,M,47.29,M,,*65
$GPVTG,225.3,T,,,000.08,N,000.15,K,A*4A
$GPGSV,3,1,09,03,38,278,45,06,21,087,39,15,73,146,44,16,77,250,45*74
$GPGSV,3,2,09,18,27,121,40,21,58,068,45,25,10,205,37,37,29,155,*71
$GPGSV,3,3,09,22,09,154,36,,,,,,,,,,,,*4C
$GPGSA,M,3,03,06,15,16,18,21,25,22,,,,,2.1,1.4,1.6*34
$GPZDA,153730.57,23,11,2005,00,00*61
$GPGRS,153730.00,1,0.4,-1.0,-1.1,0.3,1.5,0.1,-1.8,0.7,,,,*6D
$GPGST,153730.00,2.9,4.5,2.2,88.5,4.5,2.2,5.3*6C
$GPGGA,153730.40,4847.114590,N,00205.967710,E,1,08,1.4,158.32,M,47.29,M,,*6D
$GPVTG,245.3,T,,,000.05,N,000.09,K,A*4C
$GPGSA,M,3,03,06,15,16,18,21,25,22,,,,,2.1,1.4,1.6*34
$GPGGA,153730.80,4847.114589,N,00205.967717,E,1,08,1.4,158.33,M,47.29,M,,*6F
$GPVTG,174.2,T,,,000.23,N,000.42,K,A*47
$GPGSA,M,3,03,06,15,16,18,21,25,22,,,,,2.1,1.4,1.6*34
$GPGGA,153731.00,4847.114585,N,00205.967711,E,1,08,1.4,158.31,M,47.29,M,,*6E
$GPVTG,77.0,T,,,000.09,N,000.16,K,A*7E
$GPGSV,3,1,09,03,38,278,45,06,21,087,39,15,73,146,44,16,77,250,45*74
$GPGSV,3,2,09,18,27,121,40,21,58,068,45,25,10,205,37,37,29,155,*71
$GPGSV,3,3,09,22,09,154,36,,,,,,,,,,,,*4C
$GPGSA,M,3,03,06,15,16,18,21,25,22,,,,,2.1,1.4,1.6*34
$GPZDA,153731.49,23,11,2005,00,00*6F
$GPGRS,153731.00,1,0.4,-1.0,-1.1,0.3,1.5,0.1,-1.8,0.7,,,,*6C
$GPGST,153731.00,2.9,4.5,2.2,88.5,4.5,2.2,5.3*6D
$GPGGA,153731.40,4847.114583,N,00205.967709,E,1,08,1.4,158.33,M,47.29,M,,*67
$GPVTG,203.6,T,,,000.07,N,000.13,K,A*42
$GPGSA,M,3,03,06,15,16,18,21,25,22,,,,,2.1,1.4,1.6*34
$GPGGA,153731.60,4847.114589,N,00205.967706,E,1,08,1.4,158.31,M,47.29,M,,*62
$GPVTG,340.8,T,,,000.18,N,000.33,K,A*46
$GPGSA,M,3,03,06,15,16,18,21,25,22,,,,,2.1,1.4,1.6*34
$GPGGA,153731.80,4847.114596,N,00205.967701,E,1,08,1.4,158.30,M,47.29,M,,*64
$GPVTG,334.3,T,,,000.19,N,000.35,K,A*49
$GPGSA,M,3,03,06,15,16,18,21,25,22,,,,,2.1,1.4,1.6*34
$GPGGA,153732.00,4847.114581,N,00205.967708,E,1,08,1.4,158.31,M,47.29,M,,*61
$GPVTG,6.1,T,,,000.13,N,000.24,K,A*43
$GPGSV,3,1,09,03,38,278,45,06,21,087,39,15,73,146,44,16,77,250,44*75
$GPGSV,3,2,09,18,27,121,41,21,58,068,45,25,10,205,38,37,29,155,*7F
$GPGSV,3,3,09,22,09,154,37,,,,,,,,,,,,*4D
$GPGSA,M,3,03,06,15,16,18,21,25,22,,,,,2.1,1.4,1.6*34
$GPZDA,153732.55,23,11,2005,00,00*61
$GPGRS,153732.00,1,0.4,-1.0,-1.1,0.3,1.5,0.1,-1.8,0.7,,,,*6F
$GPGST,153732.00,2.9,4.5,2.2,88.5,4.5,2.2,5.3*6E
$GPGGA,153732.40,4847.114578,N,00205.967707,E,1,08,1.4,158.33,M,47.29,M,,*6E
$GPVTG,199.2,T,,,000.25,N,000.46,K,A*46
$GPGSA,M,3,03,06,15,16,18,21,25,22,,,,,2.1,1.4,1.6*34
$GPGGA,153732.60,4847.114578,N,00205.967710,E,1,08,1.4,158.32,M,47.29,M,,*6B
$GPVTG,73.9,T,,,000.05,N,000.10,K,A*79
$GPGSA,M,3,03,06,15,16,18,21,25,22,,,,,2.1,1.4,1.6*34
$GPGGA,153732.80,4847.114576,N,00205.967715,E,1,08,1.4,158.34,M,47.29,M,,*68
$GPVTG,120.0,T,,,000.13,N,000.24,K,A*47
$GPGSA,M,3,03,06,15,16,18,21,25,22,,,,,2.1,1.4,1.6*34
$GPGGA,153733.00,4847.114577,N,00205.967706,E,1,08,1.4,158.33,M,47.29,M,,*65
$GPVTG,201.9,T,,,000.18,N,000.33,K,A*43
$GPGSV,3,1,09,03,38,278,45,06,21,087,39,15,73,146,45,16,77,250,44*74
$GPGSV,3,2,09,18,27,121,40,21,58,068,45,25,10,205,38,37,29,155,*7E
$GPGSV,3,3,09,22,09,154,36,,,,,,,,,,,,*4C
$GPGSA,M,3,03,06,15,16,18,21,25,22,,,,,2.1,1.4,1.6*34
$GPZDA,153733.57,23,11,2005,00,00*62
$GPGRS,153733.00,1,0.4,-1.0,-1.1,0.3,1.5,0.1,-1.8,0.7,,,,*6E
$GPGST,153733.00,3.0,4.5,2.2,88.5,4.5,2.2,5.3*67
$GPGGA,153733.40,4847.114569,N,00205.967704,E,1,08,1.4,158.32,M,47.29,M,,*6D
$GPVTG,185.4,T,,,000.23,N,000.43,K,A*4E
$GPGSA,M,3,03,06,15,16,18,21,25,22,,,,,2.1,1.4,1.6*34
$GPGGA,153733.60,4847.114565,N,00205.967710,E,1,08,1.4,158.31,M,47.29,M,,*65
$GPVTG,133.4,T,,,000.12,N,000.23,K,A*47
$GPGSA,M,3,03,06,15,16,18,21,25,22,,,,,2.1,1.4,1.6*34
$GPGGA,153733.80,4847.114567,N,00205.967707,E,1,08,1.4,158.31,M,47.29,M,,*6F
$GPVTG,306.6,T,,,000.06,N,000.11,K,A*45
$GPGSA,M,3,03,06,15,16,18,21,25,22,,,,,2.1,1.4,1.6*34
$GPGGA,153734.00,4847.114577,N,00205.967704,E,1,08,1.4,158.33,M,47.29,M,,*60
$GPVTG,301.7,T,,,000.16,N,000.30,K,A*41
$GPGSV,3,1,09,03,38,278,45,06,21,087,39,15,73,146,45,16,77,250,44*74
$GPGSV,3,2,09,18,27,121,41,21,58,068,46,25,10,205,37,37,29,155,*73
$GPGSV,3,3,09,22,09,154,36,,,,,,,,,,,,*4C
$GPGSA,M,3,03,06,15,16,18,21,25,22,,,,,2.1,1.4,1.6*34
$GPZDA,153734.66,23,11,2005,00,00*67
$GPGRS,153734.00,1,0.4,-1.0,-1.1,0.3,1.5,0.1,-1.8,0.7,,,,*69
$GPGST,153734.00,3.0,4.5,2.2,88.5,4.5,2.2,5.3*60
$GPGGA,153734.60,4847.114569,N,00205.967710,E,1,08,1.4,158.33,M,47.29,M,,*6C
$GPVTG,181.6,T,,,000.02,N,000.04,K,A*48
$GPGSA,M,3,03,06,15,16,18,21,25,22,,,,,2.1,1.4,1.6*34
$GPGGA,153734.80,4847.114572,N,00205.967701,E,1,08,1.4,158.34,M,47.29,M,,*6F
$GPVTG,295.7,T,,,000.07,N,000.12,K,A*4D
$GPGSA,M,3,03,06,15,16,18,21,25,22,,,,,2.1,1.4,1.6*34
$GPGGA,153735.00,4847.114573,N,00205.967701,E,1,08,1.4,158.33,M,47.29,M,,*60
$GPVTG,322.8,T,,,000.06,N,000.11,K,A*4D
$GPGSV,3,1,09,03,38,278,45,06,21,087,40,15,73,146,45,16,77,250,44*7A
$GPGSV,3,2,09,18,27,121,41,21,58,068,46,25,10,205,38,37,29,155,*7C
$GPGSV,3,3,09,22,09,154,36,,,,,,,,,,,,*4C
$GPGSA,M,3,03,06,15,16,18,21,25,22,,,,,2.1,1.4,1.6*34
$GPZDA,153735.52,23,11,2005,00,00*61
$GPGRS,153735.00,1,0.4,-1.0,-1.1,0.3,1.5,0.1,-1.9,0.7,,,,*69
$GPGST,153735.00,3.0,4.5,2.2,88.5,4.5,2.2,5.3*61
$GPGGA,153735.40,4847.114569,N,00205.967703,E,1,08,1.4,158.33,M,47.29,M,,*6D
$GPVTG,119.4,T,,,000.07,N,000.13,K,A*48
$GPGSA,M,3,03,06,15,16,18,21,25,22,,,,,2.1,1.4,1.6*34
$GPGGA,153735.60,4847.114571,N,00205.967699,E,1,08,1.4,158.33,M,47.29,M,,*64
$GPVTG,303.2,T,,,000.05,N,000.10,K,A*46
$GPGSA,M,3,03,06,15,16,18,21,25,22,,,,,2.1,1.4,1.6*34
$GPGGA,153735.80,4847.114572,N,00205.967697,E,1,08,1.4,158.33,M,47.29,M,,*67
$GPVTG,301.9,T,,,000.06,N,000.12,K,A*4E
$GPGSA,M,3,03,06,15,16,18,21,25,22,,,,,2.1,1.4,1.6*34
$GPGGA,153736.00,4847.114576,N,00205.967701,E,1,08,1.4,158.32,M,47.29,M,,*67
$GPVTG,230.8,T,,,000.17,N,000.31,K,A*4D
$GPGSV,3,1,09,03,38,278,45,06,21,087,39,15,73,146,45,16,77,250,44*74
$GPGSV,3,2,09,18,27,121,41,21,58,068,46,25,10,205,38,37,29,155,*7C
$GPGSV,3,3,09,22,09,154,36,,,,,,,,,,,,*4C
$GPGSA,M,3,03,06,15,16,18,21,25,22,,,,,2.1,1.4,1.6*34
$GPZDA,153736.57,23,11,2005,00,00*67
$GPGRS,153736.00,1,0.4,-1.1,-1.1,0.3,1.5,0.1,-1.9,0.8,,,,*64
$GPGST,153736.00,3.0,4.5,2.2,88.5,4.5,2.2,5.3*62
$GPGGA,153736.60,4847.114576,N,00205.967697,E,1,08,1.4,158.32,M,47.29,M,,*6F
$GPVTG,232.2,T,,,000.03,N,000.06,K,A*44
$GPGSA,M,3,03,06,15,16,18,21,25,22,,,,,2.1,1.4,1.6*34
$GPGGA,153736.80,4847.114579,N,00205.967696,E,1,08,1.4,158.30,M,47.29,M,,*6D
$GPVTG,353.3,T,,,000.15,N,000.28,K,A*48
$GPGSA,M,3,03,06,15,16,18,21,25,22,,,,,2.1,1.4,1.6*34
$GPGGA,153737.00,4847.114576,N,00205.967705,E,1,08,1.4,158.32,M,47.29,M,,*62
$GPVTG,205.1,T,,,000.10,N,000.18,K,A*4E
$GPGSV,3,1,09,03,38,278,45,06,20,087,39,15,73,146,44,16,77,250,44*74
$GPGSV,3,2,09,18,27,121,40,21,58,068,45,25,10,205,38,37,29,155,*7E
$GPGSV,3,3,09,22,09,154,36,,,,,,,,,,,,*4C
$GPGSA,M,3,03,06,15,16,18,21,25,22,,,,,2.1,1.4,1.6*34
$GPZDA,153737.49,23,11,2005,00,00*69
$GPGRS,153737.00,1,0.4,-1.1,-1.1,0.3,1.5,0.1,-1.9,0.7,,,,*6A
$GPGST,153737.00,3.0,4.5,2.2,88.5,4.5,2.2,5.3*63
$GPGGA,153737.40,4847.114580,N,00205.967704,E,1,08,1.4,158.31,M,47.29,M,,*6D
$GPVTG,270.4,T,,,000.10,N,000.19,K,A*48
$GPGSA,M,3,03,06,15,16,18,21,25,22,,,,,2.1,1.4,1.6*34
$GPGGA,153737.60,4847.114583,N,00205.967702,E,1,08,1.4,158.30,M,47.29,M,,*6B
$GPVTG,344.8,T,,,000.10,N,000.18,K,A*43
$GPGSA,M,3,03,06,15,16,18,21,25,22,,,,,2.1,1.4,1.6*34
$GPGGA,153737.80,4847.114589,N,00205.967709,E,1,08,1.4,158.30,M,47.29,M,,*64
$GPVTG,35.8,T,,,000.13,N,000.24,K,A*7A
$GPGSA,M,3,03,06,15,16,18,21,25,22,,,,,2.1,1.4,1.6*34
$GPGGA,153738.00,4847.114575,N,00205.967707,E,1,08,1.4,158.32,M,47.29,M,,*6C
$GPVTG,70.3,T,,,000.06,N,000.11,K,A*72
$GPGSV,3,1,09,03,38,278,45,06,20,087,39,15,73,146,44,16,77,250,44*74
$GPGSV,3,2,09,18,27,121,40,21,58,068,45,25,10,205,38,37,29,155,*7E
$GPGSV,3,3,09,22,09,154,35,,,,,,,,,,,,*4F
$GPGSA,M,3,03,06,15,16,18,21,25,22,,,,,2.1,1.4,1.6*34
$GPZDA,153738.52,23,11,2005,00,00*6C
$GPGRS,153738.00,1,0.4,-1.1,-1.1,0.3,1.5,0.1,-1.9,0.7,,,,*65
$GPGST,153738.00,3.0,4.5,2.2,88.5,4.5,2.2,5.3*6C
$GPGGA,153738.40,4847.114575,N,00205.967712,E,1,08,1.4,158.32,M,47.29,M,,*6C
$GPVTG,150.4,T,,,000.05,N,000.09,K,A*4C
$GPGSA,M,3,03,06,15,16,18,21,25,22,,,,,2.1,1.4,1.6*34
$GPGGA,153738.60,4847.114574,N,00205.967707,E,1,08,1.4,158.32,M,47.29,M,,*6B
$GPVTG,266.8,T,,,000.07,N,000.12,K,A*4E
$GPGSA,M,3,03,06,15,16,18,21,25,22,,,,,2.1,1.4,1.6*34
$GPGGA,153738.80,4847.114575,N,00205.967701,E,1,08,1.4,158.31,M,47.29,M,,*61
$GPVTG,284.3,T,,,000.10,N,000.19,K,A*44
$GPGSA,M,3,03,06,15,16,18,21,25,22,,,,,2.1,1.4,1.6*34
$GPGGA,153739.00,4847.114572,N,00205.967703,E,1,08,1.4,158.32,M,47.29,M,,*6E
$GPVTG,191.5,T,,,000.07,N,000.12,K,A*48
$GPGSV,3,1,09,03,38,278,45,06,20,087,40,15,73,145,45,16,77,250,44*78
$GPGSV,3,2,09,18,27,121,40,21,58,068,45,25,10,205,38,37,29,155,*7E
$GPGSV,3,3,09,22,09,154,35,,,,,,,,,,,,*4F
$GPGSA,M,3,03,06,15,16,18,21,25,22,,,,,2.1,1.4,1.6*34
$GPZDA,153739.65,23,11,2005,00,00*69
$GPGRS,153739.00,1,0.4,-1.1,-1.1,0.3,1.5,0.1,-1.9,0.7,,,,*64
$GPGST,153739.00,3.0,4.5,2.2,88.5,4.5,2.2,5.3*6D
$GPGGA,153739.60,4847.114556,N,00205.967709,E,1,08,1.4,158.31,M,47.29,M,,*67
$GPVTG,167.1,T,,,000.23,N,000.42,K,A*46
$GPGSA,M,3,03,06,15,16,18,21,25,22,,,,,2.1,1.4,1.6*34
$GPGGA,153739.80,4847.114561,N,00205.967708,E,1,08,1.4,158.31,M,47.29,M,,*6C
$GPVTG,355.8,T,,,000.10,N,000.19,K,A*42
$GPGSA,M,3,03,06,15,16,18,21,25,22,,,,,2.1,1.4,1.6*34
$GPGGA,153740.00,4847.114570,N,00205.967700,E,1,08,1.4,158.31,M,47.29,M,,*62
$GPVTG,168.4,T,,,000.05,N,000.09,K,A*47
$GPGSV,3,1,09,03,38,278,45,06,20,087,39,15,73,145,45,16,77,250,44*76
$GPGSV,3,2,09,18,27,121,41,21,58,068,45,25,10,205,38,37,29,155,*7F
$GPGSV,3,3,09,22,09,154,35,,,,,,,,,,,,*4F
$GPGSA,M,3,03,06,15,16,18,21,25,22,,,,,2.1,1.4,1.6*34
$GPZDA,153740.49,23,11,2005,00,00*69
$GPGRS,153740.00,1,0.4,-1.1,-1.1,0.3,1.5,0.1,-1.9,0.7,,,,*6A
$GPGST,153740.00,3.0,4.5,2.2,88.5,4.5,2.2,5.3*63
$GPGGA,153740.40,4847.114563,N,00205.967698,E,1,08,1.4,158.31,M,47.29,M,,*64
$GPVTG,144.3,T,,,000.05,N,000.10,K,A*46
$GPGSA,M,3,03,06,15,16,18,21,25,22,,,,,2.1,1.4,1.6*34
$GPGGA,153740.60,4847.114569,N,00205.967698,E,1,08,1.4,158.29,M,47.29,M,,*65
$GPVTG,354.8,T,,,000.23,N,000.43,K,A*4C
$GPGSA,M,3,03,06,15,16,18,21,25,22,,,,,2.1,1.4,1.6*34
$GPGGA,153740.80,4847.114567,N,00205.967701,E,1,08,1.4,158.29,M,47.29,M,,*64
$GPVTG,122.9,T,,,000.05,N,000.09,K,A*44
$GPGSA,M,3,03,06,15,16,18,21,25,22,,,,,2.1,1.4,1.6*34
$GPGGA,153741.00,4847.114575,N,00205.967699,E,1,08,1.4,158.31,M,47.29,M,,*67
$GPVTG,352.0,T,,,000.18,N,000.33,K,A*4D
$GPGSV,3,1,09,03,38,278,45,06,20,087,40,15,73,145,44,16,77,250,45*78
$GPGSV,3,2,09,18,27,121,41,21,58,068,45,25,10,205,38,37,29,155,*7F
$GPGSV,3,3,09,22,09,154,36,,,,,,,,,,,,*4C
$GPGSA,M,3,03,06,15,16,18,21,25,22,,,,,2.1,1.4,1.6*34
$GPZDA,153741.55,23,11,2005,00,00*65
$GPGRS,153741.00,1,0.4,-1.1,-1.1,0.3,1.5,0.1,-1.9,0.8,,,,*64
$GPGST,153741.00,3.0,4.5,2.2,88.5,4.5,2.2,5.3*62
$GPGGA,153741.40,4847.114576,N,00205.967696,E,1,08,1.4,158.32,M,47.29,M,,*6C
$GPVTG,333.0,T,,,000.22,N,000.41,K,A*46
$GPGSA,M,3,03,06,15,16,18,21,25,22,,,,,2.1,1.4,1.6*34
$GPGGA,153741.60,4847.114573,N,00205.967700,E,1,08,1.4,158.33,M,47.29,M,,*64
$GPVTG,143.6,T,,,000.14,N,000.25,K,A*42
$GPGSA,M,3,03,06,15,16,18,21,25,22,,,,,2.1,1.4,1.6*34
$GPGGA,153741.80,4847.114580,N,00205.967699,E,1,08,1.4,158.31,M,47.29,M,,*65
$GPVTG,353.4,T,,,000.19,N,000.35,K,A*4F
$GPGSA,M,3,03,06,15,16,18,21,25,22,,,,,2.1,1.4,1.6*34
$GPGGA,153742.00,4847.114575,N,00205.967701,E,1,08,1.4,158.31,M,47.29,M,,*64
$GPVTG,54.1,T,,,000.09,N,000.18,K,A*70
$GPGSV,3,1,09,03,38,278,45,06,20,087,39,15,73,145,45,16,77,250,45*77
$GPGSV,3,2,09,18,27,121,40,21,58,068,45,25,10,205,37,37,29,155,*71
$GPGSV,3,3,09,22,09,154,35,,,,,,,,,,,,*4F
$GPGSA,M,3,03,06,15,16,18,21,25,22,,,,,2.1,1.4,1.6*34
$GPZDA,153742.66,23,11,2005,00,00*66
$GPGRS,153742.00,1,0.4,-1.1,-1.1,0.3,1.5,0.1,-1.9,0.8,,,,*67
$GPGST,153742.00,3.0,4.5,2.2,88.5,4.5,2.2,5.3*61
$GPGGA,153742.60,4847.114579,N,00205.967701,E,1,08,1.4,158.31,M,47.29,M,,*6E
$GPVTG,224.4,T,,,000.07,N,000.13,K,A*45
$GPGSA,M,3,03,06,15,16,18,21,25,22,,,,,2.1,1.4,1.6*34
$GPGGA,153742.80,4847.114576,N,00205.967702,E,1,08,1.4,158.31,M,47.29,M,,*6C
$GPVTG,163.4,T,,,000.09,N,000.17,K,A*4F
$GPGSA,M,3,03,06,15,16,18,21,25,22,,,,,2.1,1.4,1.6*34
$GPGGA,153743.00,4847.114576,N,00205.967702,E,1,08,1.4,158.30,M,47.29,M,,*64
$GPVTG,99.1,T,,,000.08,N,000.15,K,A*7D
$GPGSV,3,1,09,03,38,278,45,06,20,087,40,15,73,145,45,16,77,250,44*78
$GPGSV,3,2,09,18,27,121,40,21,58,068,44,25,10,205,37,37,29,155,*70
$GPGSV,3,3,09,22,09,154,35,,,,,,,,,,,,*4F
$GPGSA,M,3,03,06,15,16,18,21,25,22,,,,,2.1,1.4,1.6*34
$GPZDA,153743.49,23,11,2005,00,00*6A
$GPGRS,153743.00,1,0.4,-1.1,-1.1,0.3,1.5,0.1,-1.9,0.8,,,,*66
$GPGST,153743.00,3.0,4.5,2.2,88.5,4.5,2.2,5.3*60
$GPGGA,153743.40,4847.114580,N,00205.967702,E,1,08,1.4,158.29,M,47.29,M,,*61
$GPVTG,3.0,T,,,000.07,N,000.12,K,A*47
$GPGSA,M,3,03,06,15,16,18,21,25,22,,,,,2.1,1.4,1.6*34
$GPGGA,153743.60,4847.114580,N,00205.967699,E,1,08,1.4,158.30,M,47.29,M,,*68
$GPVTG,267.9,T,,,000.10,N,000.19,K,A*43
$GPGSA,M,3,03,06,15,16,18,21,25,22,,,,,2.1,1.4,1.6*34
$GPGGA,153743.80,4847.114573,N,00205.967702,E,1,08,1.4,158.31,M,47.29,M,,*68
$GPVTG,65.3,T,,,000.09,N,000.17,K,A*7F
$GPGSA,M,3,03,06,15,16,18,21,25,22,,,,,2.1,1.4,1.6*34
$GPGGA,153744.00,4847.114572,N,00205.967699,E,1,08,1.4,158.31,M,47.29,M,,*65
$GPVTG,208.7,T,,,000.11,N,000.20,K,A*4F
$GPGSV,3,1,09,03,38,278,45,06,20,087,39,15,73,145,45,16,77,250,45*77
$GPGSV,3,2,09,18,27,121,40,21,58,068,45,25,10,205,38,39,29,150,*75
$GPGSV,3,3,09,22,09,154,35,,,,,,,,,,,,*4F
$GPGSA,M,3,03,06,15,16,18,21,25,22,,,,,2.1,1.4,1.6*34
$GPZDA,153744.55,23,11,2005,00,00*60
$GPGRS,153744.00,1,0.4,-1.1,-1.1,0.3,1.5,0.1,-1.9,0.8,,,,*61
$GPGST,153744.00,3.0,4.5,2.2,88.5,4.5,2.2,5.3*67
$GPGGA,153744.40,4847.114577,N,00205.967701,E,1,08,1.4,158.29,M,47.29,M,,*6D
$GPVTG,174.9,T,,,000.12,N,000.23,K,A*49
$GPGSA,M,3,03,06,15,16,18,21,25,22,,,,,2.1,1.4,1.6*34
$GPGGA,153744.60,4847.114578,N,00205.967689,E,1,08,1.4,158.29,M,47.29,M,,*61
$GPVTG,274.2,T,,,000.14,N,000.26,K,A*42
$GPGSA,M,3,03,06,15,16,18,21,25,22,,,,,2.1,1.4,1.6*34
$GPGGA,153744.80,4847.114573,N,00205.967688,E,1,08,1.4,158.29,M,47.29,M,,*65
$GPVTG,190.3,T,,,000.09,N,000.16,K,A*45
$GPGSA,M,3,03,06,15,16,18,21,25,22,,,,,2.1,1.4,1.6*34
$GPGGA,153745.00,4847.114575,N,00205.967683,E,1,08,1.4,158.31,M,47.29,M,,*68
$GPVTG,330.6,T,,,000.13,N,000.24,K,A*42
$GPGSV,3,1,09,03,38,278,45,06,20,087,39,15,73,145,45,16,77,250,45*77
$GPGSV,3,2,09,18,27,121,40,21,58,068,45,25,10,205,37,39,29,150,*7A
$GPGSV,3,3,09,22,09,154,36,,,,,,,,,,,,*4C
$GPGSA,M,3,03,06,15,16,18,21,25,22,,,,,2.1,1.4,1.6*34
$GPZDA,153745.60,23,11,2005,00,00*67
$GPGRS,153745.00,1,0.4,-1.1,-1.1,0.3,1.5,0.1,-1.9,0.8,,,,*60
$GPGST,153745.00,3.0,4.5,2.2,88.5,4.5,2.2,5.3*66
$GPGGA,153745.60,4847.114595,N,00205.967458,E,1,08,1.4,158.29,M,47.29,M,,*6D
$GPVTG,277.3,T,,,001.30,N,002.40,K,A*45
$GPGSA,M,3,03,06,15,16,18,21,25,22,,,,,2.1,1.4,1.6*34
$GPGGA,153745.80,4847.114612,N,00205.967372,E,1,08,1.4,158.31,M,47.29,M,,*69
$GPVTG,285.7,T,,,001.63,N,003.02,K,A*4D
$GPGSA,M,3,03,06,15,16,18,21,25,22,,,,,2.1,1.4,1.6*34
$GPGGA,153746.00,4847.114630,N,00205.967214,E,1,08,1.4,158.30,M,47.29,M,,*62
$GPVTG,281.3,T,,,002.06,N,003.81,K,A*46
$GPGSV,3,1,09,03,38,278,45,06,20,087,39,15,73,145,45,16,77,250,45*77
$GPGSV,3,2,09,18,27,121,40,21,58,068,45,25,10,205,38,39,29,150,*75
$GPGSV,3,3,09,22,09,154,35,,,,,,,,,,,,*4F
$GPGSA,M,3,03,06,15,16,18,21,25,22,,,,,2.1,1.4,1.6*34
$GPZDA,153746.49,23,11,2005,00,00*6F
$GPGRS,153746.00,1,0.4,-1.1,-1.1,0.3,1.5,0.1,-1.9,0.8,,,,*63
$GPGST,153746.00,3.0,4.5,2.2,88.5,4.5,2.2,5.3*65
$GPGGA,153746.40,4847.114697,N,00205.966772,E,1,08,1.4,158.29,M,47.29,M,,*67
$GPVTG,280.9,T,,,002.98,N,005.53,K,A*43
$GPGSA,M,3,03,06,15,16,18,21,25,22,,,,,2.1,1.4,1.6*34
$GPGGA,153746.60,4847.114738,N,00205.966480,E,1,08,1.4,158.28,M,47.29,M,,*6E
$GPVTG,282.1,T,,,003.56,N,006.59,K,A*43
$GPGSA,M,3,03,06,15,16,18,21,25,22,,,,,2.1,1.4,1.6*34
$GPGGA,153746.80,4847.114782,N,00205.966149,E,1,08,1.4,158.28,M,47.29,M,,*61
$GPVTG,281.4,T,,,004.02,N,007.44,K,A*4E
$GPGSA,M,3,03,06,15,16,18,21,25,22,,,,,2.1,1.4,1.6*34
$GPGGA,153747.00,4847.114814,N,00205.965829,E,1,08,1.4,158.29,M,47.29,M,,*65
$GPVTG,281.5,T,,,004.60,N,008.53,K,A*42
$GPGSV,3,1,09,03,38,278,45,06,20,087,38,15,73,145,45,16,77,250,45*76
$GPGSV,3,2,09,18,27,121,39,21,58,068,45,25,10,205,39,39,29,150,*7A
$GPGSV,3,3,09,22,09,154,37,,,,,,,,,,,,*4D
$GPGSA,M,3,03,06,15,16,18,21,25,22,,,,,2.1,1.4,1.6*34
$GPZDA,153747.66,23,11,2005,00,00*63
$GPGRS,153747.00,1,0.4,-1.1,-1.1,0.3,1.5,0.1,-1.9,0.8,,,,*62
$GPGST,153747.00,3.0,4.5,2.2,88.5,4.5,2.2,5.3*64
$GPGGA,153747.60,4847.115003,N,00205.964496,E,1,08,1.4,158.29,M,47.29,M,,*65
$GPVTG,282.8,T,,,005.83,N,010.79,K,A*41
$GPGSA,M,3,03,06,15,16,18,21,25,22,,,,,2.1,1.4,1.6*34
$GPGGA,153747.80,4847.115072,N,00205.964020,E,1,08,1.4,158.29,M,47.29,M,,*64
$GPVTG,282.2,T,,,006.26,N,011.59,K,A*44
$GPGSA,M,3,03,06,15,16,18,21,25,22,,,,,2.1,1.4,1.6*34
$GPGGA,153748.00,4847.115153,N,00205.963490,E,1,08,1.4,158.28,M,47.29,M,,*68
$GPVTG,283.2,T,,,006.55,N,012.13,K,A*4C
$GPGSV,3,1,09,03,38,278,45,06,20,087,38,15,73,145,45,16,77,250,45*76
$GPGSV,3,2,09,18,27,121,39,21,58,068,45,25,10,205,38,39,29,150,*7B
$GPGSV,3,3,09,22,09,154,36,,,,,,,,,,,,*4C
$GPGSA,M,3,03,06,15,16,18,21,25,22,,,,,2.1,1.4,1.6*34
$GPZDA,153748.49,23,11,2005,00,00*61
$GPGRS,153748.00,1,0.4,-1.1,-1.1,0.3,1.5,0.1,-1.9,0.8,,,,*6D
$GPGST,153748.00,3.0,4.5,2.2,88.5,4.5,2.2,5.3*6B
$GPGGA,153748.40,4847.115327,N,00205.962321,E,1,08,1.4,158.28,M,47.29,M,,*61
$GPVTG,283.8,T,,,007.33,N,013.57,K,A*46
$GPGSA,M,3,03,06,15,16,18,21,25,22,,,,,2.1,1.4,1.6*34
$GPGGA,153748.60,4847.115423,N,00205.961688,E,1,08,1.4,158.26,M,47.29,M,,*6B
$GPVTG,282.9,T,,,007.73,N,014.33,K,A*47
$GPGSA,M,3,03,06,15,16,18,21,25,22,,,,,2.1,1.4,1.6*34
$GPGGA,153748.80,4847.115523,N,00205.961026,E,1,08,1.4,158.25,M,47.29,M,,*65
$GPVTG,282.8,T,,,008.09,N,014.98,K,A*45
$GPGSA,M,3,03,06,15,16,18,21,25,22,,,,,2.1,1.4,1.6*34
$GPGGA,153749.00,4847.115610,N,00205.960379,E,1,08,1.4,158.27,M,47.29,M,,*65
$GPVTG,282.4,T,,,008.41,N,015.58,K,A*48
$GPGSV,3,1,09,03,38,278,45,06,20,087,39,15,73,145,45,16,77,250,44*76
$GPGSV,3,2,09,18,27,121,39,21,58,068,45,25,10,205,38,39,29,150,*7B
$GPGSV,3,3,09,22,09,154,36,,,,,,,,,,,,*4C
$GPGSA,M,3,03,06,15,16,18,21,25,22,,,,,2.1,1.4,1.6*34
$GPZDA,153749.55,23,11,2005,00,00*6D
$GPGRS,153749.00,1,0.4,-1.1,-1.1,0.3,1.5,0.1,-1.9,0.8,,,,*6C
$GPGST,153749.00,3.0,4.5,2.2,88.5,4.5,2.2,5.3*6A
$GPGGA,153749.40,4847.115840,N,00205.958931,E,1,08,1.4,158.24,M,47.29,M,,*64
$GPVTG,282.4,T,,,009.02,N,016.70,K,A*47
$GPGSA,M,3,03,06,15,16,18,21,25,22,,,,,2.1,1.4,1.6*34
$GPGGA,153749.60,4847.115958,N,00205.958168,E,1,08,1.4,158.22,M,47.29,M,,*6C
$GPVTG,283.1,T,,,009.33,N,017.28,K,A*4D
$GPGSA,M,3,03,06,15,16,18,21,25,22,,,,,2.1,1.4,1.6*34
$GPGGA,153749.80,4847.116082,N,00205.957377,E,1,08,1.4,158.22,M,47.29,M,,*6C
$GPVTG,283.3,T,,,009.67,N,017.91,K,A*4C
$GPGSA,M,3,03,06,15,16,18,21,25,22,,,,,2.1,1.4,1.6*34
$GPGGA,153750.00,4847.116187,N,00205.956578,E,1,08,1.4,158.25,M,47.29,M,,*67
$GPVTG,282.7,T,,,010.03,N,018.57,K,A*46
$GPGSV,3,1,09,03,38,278,44,06,20,087,38,15,73,145,44,16,77,250,45*76
$GPGSV,3,2,09,18,27,121,39,21,58,068,45,25,10,205,38,39,29,150,*7B
$GPGSV,3,3,09,22,09,154,37,,,,,,,,,,,,*4D
$GPGSA,M,3,03,06,15,16,18,21,25,22,,,,,2.1,1.4,1.6*34
$GPZDA,153750.65,23,11,2005,00,00*66
$GPGRS,153750.00,1,0.4,-1.1,-1.1,0.3,1.5,0.1,-1.9,0.8,,,,*64
$GPGST,153750.00,3.0,4.5,2.2,88.5,4.5,2.2,5.3*62
$GPGGA,153750.60,4847.116602,N,00205.953972,E,1,08,1.4,158.19,M,47.29,M,,*67
$GPVTG,283.4,T,,,010.90,N,020.19,K,A*4F
$GPGSA,M,3,03,06,15,16,18,21,25,22,,,,,2.1,1.4,1.6*34
$GPGGA,153750.80,4847.116735,N,00205.953057,E,1,08,1.4,158.20,M,47.29,M,,*68
$GPVTG,282.3,T,,,011.14,N,020.64,K,A*4E
$GPGSA,M,3,03,06,15,16,18,21,25,22,,,,,2.1,1.4,1.6*34
$GPGGA,153751.00,4847.116858,N,00205.952150,E,1,08,1.4,158.21,M,47.29,M,,*63
$GPVTG,283.7,T,,,011.43,N,021.17,K,A*4C
$GPGSV,3,1,09,03,38,278,44,06,20,087,38,15,73,145,45,16,77,250,44*76
$GPGSV,3,2,09,18,27,121,39,21,58,068,45,25,10,205,38,39,29,150,*7B
$GPGSV,3,3,09,22,09,154,36,,,,,,,,,,,,*4C
$GPGSA,M,3,03,06,15,16,18,21,25,22,,,,,2.1,1.4,1.6*34
$GPZDA,153751.52,23,11,2005,00,00*63
$GPGRS,153751.00,1,0.4,-1.1,-1.2,0.3,1.5,0.1,-1.9,0.8,,,,*66
$GPGST,153751.00,3.0,4.5,2.2,88.5,4.5,2.2,5.3*63
$GPGGA,153751.40,4847.117145,N,00205.950203,E,1,08,1.4,158.21,M,47.29,M,,*64
$GPVTG,282.9,T,,,012.02,N,022.26,K,A*44
$GPGSA,M,3,03,06,15,16,18,21,25,22,,,,,2.1,1.4,1.6*34
$GPGGA,153751.60,4847.117298,N,00205.949201,E,1,08,1.4,158.20,M,47.29,M,,*6E
$GPVTG,282.9,T,,,012.24,N,022.67,K,A*45
$GPGSA,M,3,03,06,15,16,18,21,25,22,,,,,2.1,1.4,1.6*34
$GPGGA,153751.80,4847.117441,N,00205.948170,E,1,08,1.4,158.21,M,47.29,M,,*67
$GPVTG,281.9,T,,,012.54,N,023.22,K,A*41
$GPGSA,M,3,03,06,15,16,18,21,25,22,,,,,2.1,1.4,1.6*34
$GPGGA,153752.00,4847.117603,N,00205.947165,E,1,08,1.4,158.20,M,47.29,M,,*62
$GPVTG,282.9,T,,,012.70,N,023.53,K,A*42
$GPGSV,3,1,09,03,38,278,44,06,20,087,39,15,73,145,44,16,77,249,44*7E
$GPGSV,3,2,09,18,27,121,39,21,58,068,44,25,10,205,38,39,29,150,*7A
$GPGSV,3,3,09,22,09,154,37,,,,,,,,,,,,*4D
$GPGSA,M,3,03,06,15,16,18,21,25,22,,,,,2.1,1.4,1.6*34
$GPZDA,153752.57,23,11,2005,00,00*65
$GPGRS,153752.00,1,0.4,-1.1,-1.2,0.3,1.5,0.1,-1.9,0.8,,,,*65
$GPGST,153752.00,3.0,4.5,2.2,88.5,4.5,2.2,5.3*60
$GPGGA,153752.60,4847.118085,N,00205.943917,E,1,08,1.4,158.19,M,47.29,M,,*60
$GPVTG,282.7,T,,,013.51,N,025.02,K,A*4C
$GPGSA,M,3,03,06,15,16,18,21,25,22,,,,,2.1,1.4,1.6*34
$GPGGA,153752.80,4847.118254,N,00205.942795,E,1,08,1.4,158.20,M,47.29,M,,*6F
$GPVTG,282.8,T,,,013.70,N,025.37,K,A*46
$GPGSA,M,3,03,06,15,16,18,21,25,22,,,,,2.1,1.4,1.6*34
$GPGGA,153753.00,4847.118419,N,00205.941675,E,1,08,1.4,158.18,M,47.29,M,,*6E
$GPVTG,282.6,T,,,013.75,N,025.46,K,A*4B
$GPGSV,3,1,09,03,38,278,44,06,20,087,38,15,73,145,44,16,77,249,45*7E
$GPGSV,3,2,09,18,27,121,38,21,58,068,44,25,10,205,38,39,29,150,*7B
$GPGSV,3,3,09,22,09,154,36,,,,,,,,,,,,*4C
$GPGSA,M,3,03,06,15,16,18,21,25,22,,,,,2.1,1.4,1.6*34
$GPZDA,153753.45,23,11,2005,00,00*67
$GPGRS,153753.00,1,0.4,-1.1,-1.2,0.3,1.5,0.1,-1.9,0.8,,,,*64
$GPGST,153753.00,3.0,4.5,2.2,88.5,4.5,2.2,5.3*61
$GPGGA,153753.40,4847.118761,N,00205.939340,E,1,08,1.4,158.19,M,47.29,M,,*6B
$GPVTG,282.3,T,,,014.34,N,026.55,K,A*4D
$GPGSA,M,3,03,06,15,16,18,21,25,22,,,,,2.1,1.4,1.6*34
$GPGGA,153753.60,4847.118941,N,00205.938154,E,1,08,1.4,158.18,M,47.29,M,,*62
$GPVTG,282.9,T,,,014.49,N,026.83,K,A*46
$GPGSA,M,3,03,06,15,16,18,21,25,22,,,,,2.1,1.4,1.6*34
$GPGGA,153753.80,4847.119133,N,00205.936954,E,1,08,1.4,158.19,M,47.29,M,,*67
$GPVTG,283.6,T,,,014.70,N,027.22,K,A*48
$GPGSA,M,3,03,06,15,16,18,21,25,22,,,,,2.1,1.4,1.6*34
$GPGGA,153754.00,4847.119324,N,00205.935733,E,1,08,1.4,158.17,M,47.29,M,,*6E
$GPVTG,283.0,T,,,015.06,N,027.88,K,A*4E
$GPGSV,3,1,09,03,38,278,44,06,20,087,38,15,73,145,44,16,77,249,44*7F
$GPGSV,3,2,09,18,27,121,39,21,58,068,44,25,10,205,37,39,29,150,*75
$GPGSV,3,3,09,22,09,154,36,,,,,,,,,,,,*4C
$GPGSA,M,3,03,06,15,16,18,21,25,22,,,,,2.1,1.4,1.6*34
$GPZDA,153754.55,23,11,2005,00,00*61
$GPGRS,153754.00,1,0.4,-1.1,-1.2,0.3,1.5,0.1,-1.9,0.8,,,,*63
$GPGST,153754.00,3.0,4.5,2.2,88.5,4.5,2.2,5.3*66
$GPGGA,153754.40,4847.119711,N,00205.933247,E,1,08,1.4,158.15,M,47.29,M,,*6A
$GPVTG,283.4,T,,,015.39,N,028.50,K,A*4C
$GPGSA,M,3,03,06,15,16,18,21,25,22,,,,,2.1,1.4,1.6*34
$GPGGA,153754.60,4847.119912,N,00205.931974,E,1,08,1.4,158.17,M,47.29,M,,*6E
$GPVTG,283.4,T,,,015.58,N,028.85,K,A*43
$GPGSA,M,3,03,06,15,16,18,21,25,22,,,,,2.1,1.4,1.6*34
$GPGGA,153754.80,4847.120113,N,00205.930688,E,1,08,1.4,158.16,M,47.29,M,,*6F
$GPVTG,283.3,T,,,015.74,N,029.15,K,A*42
$GPGSA,M,3,03,06,15,16,18,21,25,22,,,,,2.1,1.4,1.6*34
$GPGGA,153755.00,4847.120308,N,00205.929385,E,1,08,1.4,158.13,M,47.29,M,,*6B
$GPVTG,283.3,T,,,015.87,N,029.39,K,A*40
$GPGSV,3,1,09,03,38,278,44,06,20,087,37,15,73,145,45,16,77,249,44*71
$GPGSV,3,2,09,18,27,121,39,21,58,068,44,25,10,205,36,39,29,150,*74
$GPGSV,3,3,09,22,09,154,36,,,,,,,,,,,,*4C
$GPGSA,M,3,03,06,15,16,18,21,25,22,,,,,2.1,1.4,1.6*34
$GPZDA,153755.66,23,11,2005,00,00*60
$GPGRS,153755.00,1,0.4,-1.1,-1.2,0.3,1.5,0.1,-1.9,0.8,,,,*62
$GPGST,153755.00,3.0,4.5,2.2,88.5,4.5,2.2,5.3*67
$GPGGA,153755.60,4847.120925,N,00205.925350,E,1,08,1.4,158.06,M,47.29,M,,*68
$GPVTG,283.0,T,,,016.69,N,030.91,K,A*4A
$GPGSA,M,3,03,06,15,16,18,21,25,22,,,,,2.1,1.4,1.6*34
$GPGGA,153755.80,4847.121133,N,00205.923977,E,1,08,1.4,158.04,M,47.29,M,,*63
$GPVTG,282.9,T,,,016.77,N,031.06,K,A*42
$GPGSA,M,3,03,06,15,16,18,21,25,22,,,,,2.1,1.4,1.6*34
$GPGGA,153756.00,4847.121343,N,00205.922601,E,1,08,1.4,158.07,M,47.29,M,,*61
$GPVTG,283.3,T,,,017.14,N,031.75,K,A*49
$GPGSV,3,1,09,03,38,278,44,06,20,087,38,15,73,145,45,16,77,249,44*7E
$GPGSV,3,2,09,18,27,121,39,21,58,068,44,25,10,205,35,33,00,000,*72
$GPGSV,3,3,09,22,09,154,37,,,,,,,,,,,,*4D
$GPGSA,M,3,03,06,15,16,18,21,25,22,,,,,2.1,1.4,1.6*34
$GPZDA,153756.49,23,11,2005,00,00*6E
$GPGRS,153756.00,1,0.4,-1.1,-1.2,0.3,1.5,0.1,-1.9,0.8,,,,*61
$GPGST,153756.00,3.0,4.5,2.2,88.5,4.5,2.2,5.3*64
$GPGGA,153756.40,4847.121764,N,00205.919736,E,1,08,1.4,158.07,M,47.29,M,,*69
$GPVTG,282.5,T,,,017.54,N,032.49,K,A*46
$GPGSA,M,3,03,06,15,16,18,21,25,22,,,,,2.1,1.4,1.6*34
$GPGGA,153756.60,4847.121986,N,00205.918277,E,1,08,1.4,158.04,M,47.29,M,,*6B
$GPVTG,283.0,T,,,017.83,N,033.02,K,A*46
$GPGSA,M,3,03,06,15,16,18,21,25,22,,,,,2.1,1.4,1.6*34
$GPGGA,153756.80,4847.122206,N,00205.916803,E,1,08,1.4,158.03,M,47.29,M,,*65
$GPVTG,282.7,T,,,017.99,N,033.32,K,A*48
$GPGSA,M,3,03,06,15,16,18,21,25,22,,,,,2.1,1.4,1.6*34
$GPGGA,153757.00,4847.122431,N,00205.915326,E,1,08,1.4,158.00,M,47.29,M,,*62
$GPVTG,282.6,T,,,018.23,N,033.76,K,A*47
$GPGSV,3,1,09,03,38,278,44,06,20,087,38,15,73,145,45,16,77,249,44*7E
$GPGSV,3,2,09,18,27,121,39,21,58,068,45,25,10,205,37,33,31,202,*73
$GPGSV,3,3,09,22,09,154,36,,,,,,,,,,,,*4C
$GPGSA,M,3,03,06,15,16,18,21,25,22,,,,,2.1,1.4,1.6*34
$GPZDA,153757.52,23,11,2005,00,00*65
$GPGRS,153757.00,1,0.4,-1.1,-1.2,0.3,1.5,0.1,-1.9,0.8,,,,*60
$GPGST,153757.00,3.0,4.5,2.2,88.5,4.5,2.2,5.3*65
$GPGGA,153757.40,4847.122886,N,00205.912285,E,1,08,1.4,157.99,M,47.29,M,,*66
$GPVTG,282.9,T,,,018.65,N,034.54,K,A*4D
$GPGSA,M,3,03,06,15,16,18,21,25,22,,,,,2.1,1.4,1.6*34
$GPGGA,153757.60,4847.123122,N,00205.910732,E,1,08,1.4,157.98,M,47.29,M,,*68
$GPVTG,282.9,T,,,018.97,N,035.13,K,A*42
$GPGSA,M,3,03,06,15,16,18,21,25,22,,,,,2.1,1.4,1.6*34
$GPGGA,153757.80,4847.123355,N,00205.909175,E,1,08,1.4,157.96,M,47.29,M,,*67
$GPVTG,282.8,T,,,019.00,N,035.19,K,A*46
$GPGSA,M,3,03,06,15,16,18,21,25,22,,,,,2.1,1.4,1.6*34
$GPGGA,153758.00,4847.123613,N,00205.907607,E,1,08,1.4,157.95,M,47.29,M,,*68
$GPVTG,283.8,T,,,019.44,N,036.00,K,A*4C
$GPGSV,3,1,09,03,38,278,45,06,20,087,39,15,73,145,45,16,77,249,44*7E
$GPGSV,3,2,09,18,27,121,39,21,58,068,45,25,10,205,36,33,31,202,*72
$GPGSV,3,3,09,22,09,154,36,,,,,,,,,,,,*4C
$GPGSA,M,3,03,06,15,16,18,21,25,22,,,,,2.1,1.4,1.6*34
$GPZDA,153758.57,23,11,2005,00,00*6F
$GPGRS,153758.00,1,0.4,-1.1,-1.2,0.3,1.5,0.1,-1.9,0.8,,,,*6F
$GPGST,153758.00,3.0,4.5,2.2,88.5,4.5,2.2,5.3*6A
$GPGGA,153758.60,4847.124367,N,00205.902768,E,1,08,1.4,157.91,M,47.29,M,,*66
$GPVTG,283.4,T,,,019.93,N,036.91,K,A*42
$GPGSA,M,3,03,06,15,16,18,21,25,22,,,,,2.1,1.4,1.6*34
$GPGGA,153758.80,4847.124640,N,00205.901122,E,1,08,1.4,157.90,M,47.29,M,,*62
$GPVTG,284.1,T,,,020.20,N,037.42,K,A*4D
$GPGSA,M,3,03,06,15,16,18,21,25,22,,,,,2.1,1.4,1.6*34
$GPGGA,153759.00,4847.124905,N,00205.899471,E,1,08,1.4,157.90,M,47.29,M,,*66
$GPVTG,283.9,T,,,020.43,N,037.84,K,A*4D
$GPGSV,3,1,09,03,38,278,45,06,20,087,38,15,73,145,45,16,77,249,45*7E
$GPGSV,3,2,09,18,27,121,40,21,58,068,45,25,10,205,35,33,31,202,*7F
$GPGSV,3,3,09,22,09,154,36,,,,,,,,,,,,*4C
$GPGSA,M,3,03,06,15,16,18,21,25,22,,,,,2.1,1.4,1.6*34
$GPZDA,153759.45,23,11,2005,00,00*6D
$GPGRS,153759.00,1,0.4,-1.1,-1.2,0.3,1.5,0.1,-1.9,0.8,,,,*6E
$GPGST,153759.00,3.0,4.5,2.2,88.5,4.5,2.2,5.3*6B
$GPGGA,153759.40,4847.125455,N,00205.896090,E,1,08,1.4,157.83,M,47.29,M,,*6D
$GPVTG,283.8,T,,,020.88,N,038.67,K,A*49
$GPGSA,M,3,03,06,15,16,18,21,25,22,,,,,2.1,1.4,1.6*34
$GPGGA,153759.60,4847.125732,N,00205.894378,E,1,08,1.4,157.82,M,47.29,M,,*6B
$GPVTG,283.8,T,,,020.99,N,038.87,K,A*47
$GPGSA,M,3,03,06,15,16,18,21,25,22,,,,,2.1,1.4,1.6*34
$GPGGA,153759.80,4847.126007,N,00205.892650,E,1,08,1.4,157.79,M,47.29,M,,*6A
$GPVTG,283.5,T,,,021.16,N,039.18,K,A*4B
$GPGSA,M,3,03,06,15,16,18,21,25,22,,,,,2.1,1.4,1.6*34
$GPGGA,153800.00,4847.126279,N,00205.890926,E,1,08,1.4,157.79,M,47.29,M,,*66
$GPVTG,283.7,T,,,021.41,N,039.65,K,A*41
$GPGSV,3,1,09,03,38,278,45,06,20,087,38,15,73,145,45,16,77,249,45*7E
$GPGSV,3,2,09,18,27,121,40,21,58,068,45,25,10,205,35,33,31,202,*7F
$GPGSV,3,3,09,22,09,154,36,,,,,,,,,,,,*4C
$GPGSA,M,3,03,06,15,16,18,21,25,22,,,,,2.1,1.4,1.6*34
$GPZDA,153800.57,23,11,2005,00,00*6D
$GPGRS,153800.00,1,0.4,-1.1,-1.2,0.3,1.5,0.1,-1.9,0.8,,,,*6D
$GPGST,153800.00,3.0,4.5,2.2,88.5,4.5,2.2,5.3*68
$GPGGA,153800.40,4847.126841,N,00205.887379,E,1,08,1.4,157.75,M,47.29,M,,*69
$GPVTG,283.6,T,,,021.77,N,040.32,K,A*49
$GPGSA,M,3,03,06,15,16,18,21,25,22,,,,,2.1,1.4,1.6*34
$GPGGA,153800.60,4847.127121,N,00205.885573,E,1,08,1.4,157.74,M,47.29,M,,*6A
$GPVTG,283.2,T,,,022.08,N,040.90,K,A*4E
$GPGSA,M,3,03,06,15,16,18,21,25,22,,,,,2.1,1.4,1.6*34
$GPGGA,153800.80,4847.127404,N,00205.883770,E,1,08,1.4,157.72,M,47.29,M,,*67
$GPVTG,283.4,T,,,022.06,N,040.85,K,A*42
$GPGSA,M,3,03,06,15,16,18,21,25,22,,,,,2.1,1.4,1.6*34
$GPGGA,153801.00,4847.127677,N,00205.881957,E,1,08,1.4,157.72,M,47.29,M,,*61
$GPVTG,283.6,T,,,022.45,N,041.58,K,A*46
$GPGSV,3,1,09,03,38,278,45,06,20,087,38,15,73,145,45,16,77,249,44*7F
$GPGSV,3,2,09,18,27,121,40,21,57,068,45,25,10,205,35,33,31,202,*70
$GPGSV,3,3,09,22,09,154,37,,,,,,,,,,,,*4D
$GPGSA,M,3,03,06,15,16,18,21,25,22,,,,,2.1,1.4,1.6*34
$GPZDA,153801.66,23,11,2005,00,00*6E
$GPGRS,153801.00,1,0.4,-1.0,-1.2,0.3,1.5,0.1,-1.9,0.8,,,,*6D
$GPGST,153801.00,3.0,4.5,2.2,88.5,4.5,2.2,5.3*69
$GPGGA,153801.60,4847.128541,N,00205.876388,E,1,08,1.4,157.67,M,47.29,M,,*6A
$GPVTG,283.3,T,,,022.94,N,042.48,K,A*4D
$GPGSA,M,3,03,06,15,16,18,21,25,22,,,,,2.1,1.4,1.6*34
$GPGGA,153801.80,4847.128842,N,00205.874506,E,1,08,1.4,157.66,M,47.29,M,,*69
$GPVTG,283.6,T,,,023.06,N,042.70,K,A*49
$GPGSA,M,3,03,06,15,16,18,21,25,22,,,,,2.1,1.4,1.6*34
$GPGGA,153802.00,4847.129140,N,00205.872639,E,1,08,1.4,157.65,M,47.29,M,,*62
$GPVTG,283.7,T,,,023.17,N,042.92,K,A*44
$GPGSV,3,1,09,03,38,278,45,06,20,087,38,15,73,145,45,16,77,249,44*7F
$GPGSV,3,2,09,18,27,121,41,21,57,068,45,25,10,205,35,33,31,202,*71
$GPGSV,3,3,09,22,09,154,37,,,,,,,,,,,,*4D
$GPGSA,M,3,03,06,15,16,18,21,25,22,,,,,2.1,1.4,1.6*34
$GPZDA,153802.49,23,11,2005,00,00*60
$GPGRS,153802.00,1,0.4,-1.1,-1.2,0.3,1.5,0.1,-1.9,0.8,,,,*6F
$GPGST,153802.00,3.0,4.5,2.2,88.5,4.5,2.2,5.3*6A
$GPGGA,153802.40,4847.129765,N,00205.868816,E,1,08,1.4,157.62,M,47.29,M,,*68
$GPVTG,284.0,T,,,023.56,N,043.64,K,A*49
$GPGSA,M,3,03,06,15,16,18,21,25,22,,,,,2.1,1.4,1.6*34
$GPGGA,153802.60,4847.130080,N,00205.866901,E,1,08,1.4,157.59,M,47.29,M,,*6F
$GPVTG,284.0,T,,,023.49,N,043.50,K,A*40
$GPGSA,M,3,03,06,15,16,18,21,25,22,,,,,2.1,1.4,1.6*34
$GPGGA,153802.80,4847.130411,N,00205.864952,E,1,08,1.4,157.61,M,47.29,M,,*62
$GPVTG,284.4,T,,,023.95,N,044.36,K,A*42
$GPGSA,M,3,03,06,15,16,18,21,25,22,,,,,2.1,1.4,1.6*34
$GPGGA,153803.00,4847.130731,N,00205.863039,E,1,08,1.4,157.61,M,47.29,M,,*69
$GPVTG,284.1,T,,,023.76,N,044.00,K,A*4F
$GPGSV,3,1,09,03,38,278,44,06,20,087,39,15,73,145,45,16,77,249,44*7F
$GPGSV,3,2,09,18,27,121,41,21,57,068,45,25,10,205,35,33,31,202,*71
$GPGSV,3,3,09,22,09,154,37,,,,,,,,,,,,*4D
$GPGSA,M,3,03,06,15,16,18,21,25,22,,,,,2.1,1.4,1.6*34
$GPZDA,153803.52,23,11,2005,00,00*6B
$GPGRS,153803.00,1,0.4,-1.0,-1.2,0.3,1.5,0.1,-1.9,0.8,,,,*6F
$GPGST,153803.00,3.0,4.5,2.2,88.5,4.5,2.2,5.3*6B
$GPGGA,153803.40,4847.131389,N,00205.859113,E,1,08,1.4,157.62,M,47.29,M,,*68
$GPVTG,284.2,T,,,024.21,N,044.84,K,A*45
$GPGSA,M,3,03,06,15,16,18,21,25,22,,,,,2.1,1.4,1.6*34
$GPGGA,153803.60,4847.131733,N,00205.857141,E,1,08,1.4,157.58,M,47.29,M,,*6F
$GPVTG,285.0,T,,,024.32,N,045.04,K,A*4D
$GPGSA,M,3,03,06,15,16,18,21,25,22,,,,,2.1,1.4,1.6*34
$GPGGA,153803.80,4847.132069,N,00205.855146,E,1,08,1.4,157.57,M,47.29,M,,*60
$GPVTG,284.3,T,,,024.51,N,045.40,K,A*4A
$GPGSA,M,3,03,06,15,16,18,21,25,22,,,,,2.1,1.4,1.6*34
$GPGGA,153804.00,4847.132410,N,00205.853151,E,1,08,1.4,157.57,M,47.29,M,,*65
$GPVTG,284.4,T,,,024.65,N,045.65,K,A*4D
$GPGSV,3,1,09,03,38,278,45,06,20,087,39,15,73,145,45,16,77,249,44*7E
$GPGSV,3,2,09,18,27,121,41,21,57,068,45,25,10,205,34,33,31,202,*70
$GPGSV,3,3,09,22,09,154,36,,,,,,,,,,,,*4C
$GPGSA,M,3,03,06,15,16,18,21,25,22,,,,,2.1,1.4,1.6*34
$GPZDA,153804.66,23,11,2005,00,00*6B
$GPGRS,153804.00,1,0.4,-1.1,-1.2,0.3,1.5,0.1,-1.9,0.8,,,,*69
$GPGST,153804.00,3.0,4.5,2.2,88.5,4.5,2.2,5.3*6C
$GPGGA,153804.60,4847.133479,N,00205.847081,E,1,08,1.4,157.47,M,47.29,M,,*65
$GPVTG,285.0,T,,,024.84,N,046.00,K,A*47
$GPGSA,M,3,03,06,15,16,18,21,25,22,,,,,2.1,1.4,1.6*34
$GPGGA,153804.80,4847.133847,N,00205.845024,E,1,08,1.4,157.48,M,47.29,M,,*68
$GPVTG,285.1,T,,,025.37,N,046.99,K,A*4F
$GPGSA,M,3,03,06,15,16,18,21,25,22,,,,,2.1,1.4,1.6*34
$GPGGA,153805.00,4847.134211,N,00205.842968,E,1,08,1.4,157.50,M,47.29,M,,*60
$GPVTG,285.8,T,,,025.61,N,047.44,K,A*44
$GPGSV,3,1,09,03,38,278,44,06,20,087,39,15,73,145,45,16,77,249,45*7E
$GPGSV,3,2,09,18,27,121,40,21,57,068,45,25,10,205,35,33,31,202,*70
$GPGSV,3,3,09,22,09,154,35,,,,,,,,,,,,*4F
$GPGSA,M,3,03,06,15,16,18,21,25,22,,,,,2.1,1.4,1.6*34
$GPZDA,153805.49,23,11,2005,00,00*67
$GPGRS,153805.00,1,0.4,-1.0,-1.2,0.3,1.5,0.1,-1.9,0.8,,,,*69
$GPGST,153805.00,3.0,4.5,2.2,88.5,4.5,2.2,5.3*6D
$GPGGA,153805.40,4847.134979,N,00205.838820,E,1,08,1.4,157.47,M,47.29,M,,*67
$GPVTG,285.5,T,,,025.73,N,047.65,K,A*49
$GPGSA,M,3,03,06,15,16,18,21,25,22,,,,,2.1,1.4,1.6*34
$GPGGA,153805.60,4847.135386,N,00205.836737,E,1,08,1.4,157.45,M,47.29,M,,*6B
$GPVTG,286.5,T,,,025.85,N,047.88,K,A*40
$GPGSA,M,3,03,06,15,16,18,21,25,22,,,,,2.1,1.4,1.6*34
$GPGGA,153805.80,4847.135778,N,00205.834658,E,1,08,1.4,157.42,M,47.29,M,,*6D
$GPVTG,286.7,T,,,025.98,N,048.11,K,A*41
$GPGSA,M,3,03,06,15,16,18,21,25,22,,,,,2.1,1.4,1.6*34
$GPGGA,153806.00,4847.136201,N,00205.832565,E,1,08,1.4,157.40,M,47.29,M,,*67
$GPVTG,286.9,T,,,026.06,N,048.26,K,A*4F
$GPGSV,3,1,09,03,38,278,44,06,20,087,40,15,73,145,45,16,77,249,44*71
$GPGSV,3,2,09,18,27,121,40,21,57,068,45,25,10,205,35,33,31,202,*70
$GPGSV,3,3,09,22,09,154,37,,,,,,,,,,,,*4D
$GPGSA,M,3,03,06,15,16,18,21,25,22,,,,,2.1,1.4,1.6*34
$GPZDA,153806.57,23,11,2005,00,00*6B
$GPGRS,153806.00,1,0.4,-1.0,-1.2,0.3,1.5,0.1,-1.9,0.8,,,,*6A
$GPGST,153806.00,3.0,4.5,2.2,88.5,4.5,2.2,5.3*6E
$GPGGA,153806.40,4847.137115,N,00205.828360,E,1,08,1.4,157.34,M,47.29,M,,*6F
$GPVTG,288.6,T,,,026.41,N,048.91,K,A*41
$GPGSA,M,3,03,06,15,16,18,21,25,22,,,,,2.1,1.4,1.6*34
$GPGGA,153806.60,4847.137593,N,00205.826250,E,1,08,1.4,157.31,M,47.29,M,,*6E
$GPVTG,288.9,T,,,026.55,N,049.18,K,A*4B
$GPGSA,M,3,03,06,15,16,18,21,25,22,,,,,2.1,1.4,1.6*34
$GPGGA,153806.80,4847.138091,N,00205.824133,E,1,08,1.4,157.28,M,47.29,M,,*64
$GPVTG,289.6,T,,,026.75,N,049.55,K,A*4E
$GPGSA,M,3,03,06,15,16,18,21,25,22,,,,,2.1,1.4,1.6*34
$GPGGA,153807.00,4847.138597,N,00205.822030,E,1,08,1.4,157.26,M,47.29,M,,*64
$GPVTG,290.3,T,,,026.81,N,049.65,K,A*4B
$GPGSV,3,1,09,03,38,278,44,06,20,087,40,15,73,145,44,16,77,249,44*70
$GPGSV,3,2,09,18,27,121,40,21,57,068,45,25,10,205,36,33,31,202,*73
$GPGSV,3,3,09,22,09,154,36,,,,,,,,,,,,*4C
$GPGSA,M,3,03,06,15,16,18,21,25,22,,,,,2.1,1.4,1.6*34
$GPZDA,153807.60,23,11,2005,00,00*6E
$GPGRS,153807.00,1,0.4,-1.1,-1.2,0.3,1.5,0.1,-1.9,0.8,,,,*6A
$GPGST,153807.00,3.0,4.5,2.2,88.5,4.5,2.2,5.3*6F
$GPGGA,153807.60,4847.140205,N,00205.815653,E,1,08,1.4,157.18,M,47.29,M,,*6B
$GPVTG,291.6,T,,,027.16,N,050.29,K,A*40
$GPGSA,M,3,03,06,15,16,18,21,25,22,,,,,2.1,1.4,1.6*34
$GPGGA,153807.80,4847.140767,N,00205.813511,E,1,08,1.4,157.18,M,47.29,M,,*67
$GPVTG,291.6,T,,,027.43,N,050.80,K,A*43
$GPGSA,M,3,03,06,15,16,18,21,25,22,,,,,2.1,1.4,1.6*34
$GPGGA,153808.00,4847.141334,N,00205.811392,E,1,08,1.4,157.18,M,47.29,M,,*6C
$GPVTG,292.3,T,,,027.43,N,050.80,K,A*45
$GPGSV,3,1,09,03,38,278,44,06,20,087,39,15,73,145,45,16,77,249,44*7F
$GPGSV,3,2,09,18,27,121,39,21,57,068,45,25,10,205,35,37,29,155,*72
$GPGSV,3,3,09,22,09,154,37,,,,,,,,,,,,*4D
$GPGSA,M,3,03,06,15,16,18,21,25,22,,,,,2.1,1.4,1.6*34
$GPZDA,153808.55,23,11,2005,00,00*67
$GPGRS,153808.00,1,0.4,-1.0,-1.2,0.3,1.5,0.1,-1.9,0.8,,,,*64
$GPGST,153808.00,3.0,4.5,2.2,88.5,4.5,2.2,5.3*60
$GPGGA,153808.40,4847.142535,N,00205.807125,E,1,08,1.4,157.17,M,47.29,M,,*6A
$GPVTG,293.2,T,,,027.72,N,051.34,K,A*49
$GPGSA,M,3,03,06,15,16,18,21,25,22,,,,,2.1,1.4,1.6*34
$GPGGA,153808.60,4847.143150,N,00205.805002,E,1,08,1.4,157.17,M,47.29,M,,*68
$GPVTG,293.7,T,,,027.60,N,051.11,K,A*48
$GPGSA,M,3,03,06,15,16,18,21,25,22,,,,,2.1,1.4,1.6*34
$GPGGA,153808.80,4847.143789,N,00205.802867,E,1,08,1.4,157.19,M,47.29,M,,*66
$GPVTG,294.4,T,,,027.91,N,051.68,K,A*4C
$GPGSA,M,3,03,06,15,16,18,21,25,22,,,,,2.1,1.4,1.6*34
$GPGGA,153809.00,4847.144425,N,00205.800726,E,1,08,1.4,157.19,M,47.29,M,,*65
$GPVTG,295.1,T,,,028.02,N,051.89,K,A*42
$GPGSV,3,1,09,03,38,278,44,06,20,087,40,15,73,145,45,16,77,249,44*71
$GPGSV,3,2,09,18,27,121,40,21,57,068,45,25,10,205,33,37,29,155,*7A
$GPGSV,3,3,09,22,09,154,36,,,,,,,,,,,,*4C
$GPGSA,M,3,03,06,15,16,18,21,25,22,,,,,2.1,1.4,1.6*34
$GPZDA,153809.57,23,11,2005,00,00*64
$GPGRS,153809.00,1,0.4,-1.1,-1.2,0.3,1.5,0.1,-1.9,0.8,,,,*64
$GPGST,153809.00,3.0,4.5,2.2,88.5,4.5,2.2,5.3*61
$GPGGA,153809.40,4847.145757,N,00205.796466,E,1,08,1.4,157.22,M,47.29,M,,*69
$GPVTG,295.4,T,,,028.14,N,052.12,K,A*41
$GPGSA,M,3,03,06,15,16,18,21,25,22,,,,,2.1,1.4,1.6*34
$GPGGA,153809.60,4847.146467,N,00205.794352,E,1,08,1.4,157.23,M,47.29,M,,*6B
$GPVTG,296.9,T,,,028.23,N,052.28,K,A*42
$GPGSA,M,3,03,06,15,16,18,21,25,22,,,,,2.1,1.4,1.6*34
$GPGGA,153809.80,4847.147197,N,00205.792253,E,1,08,1.4,157.23,M,47.29,M,,*68
$GPVTG,297.8,T,,,028.23,N,052.28,K,A*42
$GPGSA,M,3,03,06,15,16,18,21,25,22,,,,,2.1,1.4,1.6*34
$GPGGA,153810.00,4847.147931,N,00205.790148,E,1,08,1.4,157.26,M,47.29,M,,*62
$GPVTG,298.3,T,,,028.48,N,052.74,K,A*42
$GPGSV,3,1,09,03,38,278,44,06,20,087,39,15,73,145,45,16,77,249,44*7F
$GPGSV,3,2,09,18,27,121,40,21,57,068,46,25,10,205,33,37,29,155,*79
$GPGSV,3,3,09,22,09,154,36,,,,,,,,,,,,*4C
$GPGSA,M,3,03,06,15,16,18,21,25,22,,,,,2.1,1.4,1.6*34
$GPZDA,153810.71,23,11,2005,00,00*68
$GPGRS,153810.00,1,0.4,-1.1,-1.2,0.3,1.5,0.1,-1.9,0.8,,,,*6C
$GPGST,153810.00,3.0,4.5,2.2,88.5,4.5,2.2,5.3*69
$GPGGA,153810.60,4847.150251,N,00205.783891,E,1,08,1.4,157.31,M,47.29,M,,*66
$GPVTG,299.6,T,,,028.50,N,052.79,K,A*42
$GPGSA,M,3,03,06,15,16,18,21,25,22,,,,,2.1,1.4,1.6*34
$GPGGA,153810.80,4847.151051,N,00205.781824,E,1,08,1.4,157.31,M,47.29,M,,*67
$GPVTG,300.4,T,,,028.52,N,052.83,K,A*46
$GPGSA,M,3,03,06,15,16,18,21,25,22,,,,,2.1,1.4,1.6*34
$GPGGA,153811.00,4847.151875,N,00205.779742,E,1,08,1.4,157.33,M,47.29,M,,*6A
$GPVTG,301.0,T,,,028.81,N,053.36,K,A*42
$GPGSV,3,1,09,03,38,278,44,06,20,087,38,15,73,145,45,16,77,249,45*7F
$GPGSV,3,2,09,18,27,121,40,21,57,068,45,25,10,205,33,37,29,155,*7A
$GPGSV,3,3,09,22,09,154,37,,,,,,,,,,,,*4D
$GPGSA,M,3,03,06,15,16,18,21,25,22,,,,,2.1,1.4,1.6*34
$GPZDA,153811.49,23,11,2005,00,00*62
$GPGRS,153811.00,1,0.4,-1.1,-1.2,0.3,1.5,0.1,-1.9,0.8,,,,*6D
$GPGST,153811.00,3.1,4.5,2.2,88.5,4.5,2.2,5.3*69
$GPGGA,153811.40,4847.153568,N,00205.775628,E,1,08,1.4,157.34,M,47.29,M,,*6B
$GPVTG,301.9,T,,,028.86,N,053.46,K,A*4B
$GPGSA,M,3,03,06,15,16,18,21,25,22,,,,,2.1,1.4,1.6*34
$GPGGA,153811.60,4847.154435,N,00205.773576,E,1,08,1.4,157.36,M,47.29,M,,*6B
$GPVTG,302.6,T,,,028.99,N,053.69,K,A*44
$GPGSA,M,3,03,06,15,16,18,21,25,22,,,,,2.1,1.4,1.6*34
$GPGGA,153811.80,4847.155316,N,00205.771539,E,1,08,1.4,157.37,M,47.29,M,,*6A
$GPVTG,303.2,T,,,028.99,N,053.69,K,A*41
$GPGSA,M,3,03,06,15,16,18,21,25,22,,,,,2.1,1.4,1.6*34
$GPGGA,153812.00,4847.156211,N,00205.769486,E,1,08,1.4,157.39,M,47.29,M,,*66
$GPVTG,304.0,T,,,029.11,N,053.91,K,A*42
$GPGSV,3,1,09,03,38,278,44,06,20,087,38,15,73,145,45,16,77,249,44*7E
$GPGSV,3,2,09,18,27,121,41,21,57,068,45,25,10,205,31,37,29,155,*79
$GPGSV,3,3,09,22,09,154,36,,,,,,,,,,,,*4C
$GPGSA,M,3,03,06,15,16,18,21,25,22,,,,,2.1,1.4,1.6*34
$GPZDA,153812.71,23,11,2005,00,00*6A
$GPGRS,153812.00,1,0.4,-1.1,-1.2,0.3,1.5,0.1,-1.9,0.8,,,,*6E
$GPGST,153812.00,3.0,4.5,2.2,88.5,4.5,2.2,5.3*6B
$GPGGA,153812.80,4847.159491,N,00205.761109,E,1,07,1.5,156.74,M,47.29,M,,*63
$GPVTG,306.0,T,,,029.55,N,054.72,K,A*4A
$GPGSA,M,3,03,06,15,16,18,21,22,,,,,,2.3,1.5,1.7*31
$GPGGA,153813.00,4847.160457,N,00205.759100,E,1,07,1.5,156.77,M,47.29,M,,*6B
$GPVTG,306.5,T,,,029.66,N,054.93,K,A*40
$GPGSV,3,1,09,03,38,278,44,06,20,087,39,15,73,145,46,16,77,249,44*7C
$GPGSV,3,2,09,18,27,121,40,21,57,068,46,25,10,205,33,37,29,155,*79
$GPGSV,3,3,09,22,09,154,36,,,,,,,,,,,,*4C
$GPGSA,M,3,03,06,15,16,18,21,22,,,,,,2.3,1.5,1.7*31
$GPZDA,153813.55,23,11,2005,00,00*6D
$GPGRS,153813.00,1,0.0,-1.0,-1.2,0.3,1.1,0.5,-0.3,,,,,*47
$GPGST,153813.00,2.0,4.9,2.4,274.4,4.9,2.4,5.5*5D
$GPGGA,153813.40,4847.162425,N,00205.755108,E,1,07,1.5,156.77,M,47.29,M,,*6C
$GPVTG,306.6,T,,,029.62,N,054.86,K,A*43
$GPGSA,M,3,03,06,15,16,18,21,22,,,,,,2.3,1.5,1.7*31
$GPGGA,153813.60,4847.163428,N,00205.753104,E,1,07,1.5,156.78,M,47.29,M,,*67
$GPVTG,307.1,T,,,029.93,N,055.43,K,A*43
$GPGSA,M,3,03,06,15,16,18,21,22,,,,,,2.3,1.5,1.7*31
$GPGGA,153814.00,4847.165961,N,00205.749455,E,1,08,1.4,157.52,M,47.29,M,,*6D
$GPVTG,308.1,T,,,030.01,N,055.58,K,A*45
$GPGSV,3,1,09,03,38,278,44,06,20,087,41,15,73,145,46,16,77,249,44*73
$GPGSV,3,2,09,18,27,121,40,21,57,068,46,25,10,205,33,37,29,155,*79
$GPGSV,3,3,09,22,09,154,37,,,,,,,,,,,,*4D
$GPGSA,M,3,03,06,15,16,18,21,25,22,,,,,2.1,1.4,1.6*34
$GPZDA,153814.49,23,11,2005,00,00*67
$GPGRS,153814.00,1,0.4,-1.1,-1.2,0.3,1.5,0.1,-1.9,0.8,,,,*68
$GPGST,153814.00,3.0,4.5,2.2,88.5,4.5,2.2,5.3*6D
$GPGGA,153814.40,4847.168020,N,00205.745468,E,1,08,1.4,157.56,M,47.29,M,,*6E
$GPVTG,308.0,T,,,030.05,N,055.66,K,A*4D
$GPGSA,M,3,03,06,15,16,18,21,25,22,,,,,2.1,1.4,1.6*34
$GPGGA,153814.60,4847.169066,N,00205.743477,E,1,08,1.4,157.60,M,47.29,M,,*62
$GPVTG,308.5,T,,,030.28,N,056.07,K,A*43
$GPGSA,M,3,03,06,15,16,18,21,25,22,,,,,2.1,1.4,1.6*34
$GPGGA,153814.80,4847.169627,N,00205.741177,E,1,07,1.5,156.92,M,47.29,M,,*6A
$GPVTG,309.2,T,,,030.36,N,056.22,K,A*4D
$GPGSA,M,3,03,06,15,16,18,21,22,,,,,,2.3,1.5,1.7*31
$GPGGA,153815.00,4847.170677,N,00205.739193,E,1,07,1.5,156.95,M,47.29,M,,*6C
$GPVTG,309.0,T,,,030.40,N,056.30,K,A*4D
$GPGSV,3,1,09,03,38,278,45,06,20,087,41,15,73,145,45,16,77,249,44*71
$GPGSV,3,2,09,18,27,121,41,21,57,068,47,25,10,205,32,37,29,155,*78
$GPGSV,3,3,09,22,09,154,37,,,,,,,,,,,,*4D
$GPGSA,M,3,03,06,15,16,18,21,22,,,,,,2.3,1.5,1.7*31
$GPZDA,153815.57,23,11,2005,00,00*69
$GPGRS,153815.00,1,0.0,-1.0,-1.2,0.3,1.1,0.5,-0.3,,,,,*41
$GPGST,153815.00,2.0,4.9,2.4,274.4,4.9,2.4,5.5*5B
$GPGGA,153815.60,4847.173878,N,00205.733222,E,1,07,1.5,157.06,M,47.29,M,,*60
$GPVTG,309.2,T,,,030.67,N,056.80,K,A*41
$GPGSA,M,3,03,06,15,16,18,21,22,,,,,,2.3,1.5,1.7*31
$GPGGA,153815.80,4847.174958,N,00205.731234,E,1,07,1.5,157.09,M,47.29,M,,*60
$GPVTG,309.4,T,,,030.63,N,056.72,K,A*4E
$GPGSA,M,3,03,06,15,16,18,21,22,,,,,,2.3,1.5,1.7*31
$GPGGA,153816.00,4847.176026,N,00205.729247,E,1,07,1.5,157.11,M,47.29,M,,*6D
$GPVTG,309.3,T,,,030.61,N,056.69,K,A*41
$GPGSV,3,1,09,03,38,278,44,06,20,087,40,15,73,145,45,16,77,249,44*71
$GPGSV,3,2,09,18,27,121,41,21,57,068,46,25,10,205,33,37,29,155,*78
$GPGSV,3,3,09,22,09,154,38,,,,,,,,,,,,*42
$GPGSA,M,3,03,06,15,16,18,21,22,,,,,,2.3,1.5,1.7*31
$GPZDA,153816.45,23,11,2005,00,00*69
$GPGRS,153816.00,1,0.0,-1.0,-1.2,0.3,1.1,0.5,-0.3,,,,,*42
$GPGST,153816.00,2.0,4.9,2.4,274.4,4.9,2.4,5.5*58
$GPGGA,153816.40,4847.178168,N,00205.725200,E,1,07,1.5,157.13,M,47.29,M,,*61
$GPVTG,308.4,T,,,030.92,N,057.26,K,A*41
$GPGSA,M,3,03,06,15,16,18,21,22,,,,,,2.3,1.5,1.7*31
$GPGGA,153816.60,4847.179219,N,00205.723147,E,1,07,1.5,157.16,M,47.29,M,,*64
$GPVTG,307.8,T,,,030.91,N,057.24,K,A*43
$GPGSA,M,3,03,06,15,16,18,21,22,,,,,,2.3,1.5,1.7*31
$GPGGA,153816.80,4847.180779,N,00205.721439,E,1,08,1.4,157.92,M,47.29,M,,*63
$GPVTG,307.7,T,,,031.03,N,057.46,K,A*42
$GPGSA,M,3,03,06,15,16,18,21,25,22,,,,,2.1,1.4,1.6*34
$GPGGA,153817.00,4847.181818,N,00205.719345,E,1,08,1.4,157.90,M,47.29,M,,*66
$GPVTG,306.5,T,,,031.06,N,057.52,K,A*41
$GPGSV,3,1,09,03,38,278,44,06,20,087,38,15,73,145,44,16,77,249,44*7F
$GPGSV,3,2,09,18,27,121,40,21,57,068,46,25,10,205,37,37,29,155,*7D
$GPGSV,3,3,09,22,09,154,37,,,,,,,,,,,,*4D
$GPGSA,M,3,03,06,15,16,18,21,25,22,,,,,2.1,1.4,1.6*34
$GPZDA,153817.60,23,11,2005,00,00*6F
$GPGRS,153817.00,1,0.4,-1.1,-1.2,0.3,1.5,0.1,-1.9,0.8,,,,*6B
$GPGST,153817.00,3.0,4.5,2.2,88.5,4.5,2.2,5.3*6E
$GPGGA,153817.60,4847.184847,N,00205.712938,E,1,08,1.4,157.96,M,47.29,M,,*62
$GPVTG,305.2,T,,,031.47,N,058.29,K,A*43
$GPGSA,M,3,03,06,15,16,18,21,25,22,,,,,2.1,1.4,1.6*34
$GPGGA,153817.80,4847.185832,N,00205.710748,E,1,08,1.4,157.97,M,47.29,M,,*65
$GPVTG,304.3,T,,,031.54,N,058.41,K,A*4F
$GPGSA,M,3,03,06,15,16,18,21,25,22,,,,,2.1,1.4,1.6*34
$GPGGA,153818.00,4847.186803,N,00205.708585,E,1,08,1.4,158.00,M,47.29,M,,*68
$GPVTG,303.7,T,,,031.36,N,058.07,K,A*4A
$GPGSV,3,1,09,03,38,278,44,06,20,087,38,15,73,145,44,16,77,249,44*7F
$GPGSV,3,2,09,18,27,121,40,21,57,068,45,25,10,205,36,37,29,155,*7F
$GPGSV,3,3,09,22,09,154,38,,,,,,,,,,,,*42
$GPGSA,M,3,03,06,15,16,18,21,25,22,,,,,2.1,1.4,1.6*34
$GPZDA,153818.49,23,11,2005,00,00*6B
$GPGRS,153818.00,1,0.4,-1.1,-1.2,0.3,1.5,0.1,-1.9,0.8,,,,*64
$GPGST,153818.00,3.1,4.5,2.2,88.5,4.5,2.2,5.3*60
$GPGGA,153818.40,4847.188693,N,00205.704135,E,1,08,1.4,158.09,M,47.29,M,,*6F
$GPVTG,302.4,T,,,031.52,N,058.38,K,A*46
$GPGSA,M,3,03,06,15,16,18,21,25,22,,,,,2.1,1.4,1.6*34
$GPGGA,153818.60,4847.189605,N,00205.701851,E,1,08,1.4,158.12,M,47.29,M,,*67
$GPVTG,301.2,T,,,031.77,N,058.84,K,A*43
$GPGSA,M,3,03,06,15,16,18,21,25,22,,,,,2.1,1.4,1.6*34
$GPGGA,153818.80,4847.190501,N,00205.699552,E,1,08,1.4,158.10,M,47.29,M,,*6A
$GPVTG,299.9,T,,,031.67,N,058.66,K,A*45
$GPGSA,M,3,03,06,15,16,18,21,25,22,,,,,2.1,1.4,1.6*34
$GPGGA,153819.00,4847.191359,N,00205.697221,E,1,08,1.4,158.13,M,47.29,M,,*67
$GPVTG,298.8,T,,,031.74,N,058.79,K,A*49
$GPGSV,3,1,09,03,38,278,44,06,20,087,39,15,73,145,44,16,77,248,44*7F
$GPGSV,3,2,09,18,27,120,39,21,57,068,45,25,10,205,36,37,29,155,*70
$GPGSV,3,3,09,22,09,154,38,,,,,,,,,,,,*42
$GPGSA,M,3,03,06,15,16,18,21,25,22,,,,,2.1,1.4,1.6*34
$GPZDA,153819.52,23,11,2005,00,00*60
$GPGRS,153819.00,1,0.4,-1.1,-1.2,0.3,1.5,0.1,-1.9,0.8,,,,*65
$GPGST,153819.00,3.1,4.5,2.2,88.5,4.5,2.2,5.3*61
$GPGGA,153819.40,4847.192986,N,00205.692465,E,1,08,1.4,158.14,M,47.29,M,,*6C
$GPVTG,296.8,T,,,031.91,N,059.11,K,A*43
$GPGSA,M,3,03,06,15,16,18,21,25,22,,,,,2.1,1.4,1.6*34
$GPGGA,153819.60,4847.193782,N,00205.690049,E,1,08,1.4,158.19,M,47.29,M,,*60
$GPVTG,296.5,T,,,032.13,N,059.51,K,A*43
$GPGSA,M,3,03,06,15,16,18,21,25,22,,,,,2.1,1.4,1.6*34
$GPGGA,153819.80,4847.194567,N,00205.687634,E,1,08,1.4,158.20,M,47.29,M,,*60
$GPVTG,296.2,T,,,032.05,N,059.35,K,A*41
$GPGSA,M,3,03,06,15,16,18,21,25,22,,,,,2.1,1.4,1.6*34
$GPGGA,153820.00,4847.195322,N,00205.685205,E,1,08,1.4,158.28,M,47.29,M,,*68
$GPVTG,295.0,T,,,032.26,N,059.75,K,A*45
$GPGSV,3,1,09,03,38,278,44,06,20,087,39,15,73,145,44,16,77,248,45*7E
$GPGSV,3,2,09,18,27,120,40,21,57,068,45,25,10,205,36,37,29,155,*7E
$GPGSV,3,3,09,22,09,154,36,,,,,,,,,,,,*4C
$GPGSA,M,3,03,06,15,16,18,21,25,22,,,,,2.1,1.4,1.6*34
$GPZDA,153820.57,23,11,2005,00,00*6F
$GPGRS,153820.00,1,0.4,-1.1,-1.2,0.3,1.5,0.1,-1.9,0.8,,,,*6F
$GPGST,153820.00,3.1,4.5,2.2,88.5,4.5,2.2,5.3*6B
$GPGGA,153820.40,4847.196789,N,00205.680272,E,1,08,1.4,158.32,M,47.29,M,,*64
$GPVTG,293.9,T,,,032.37,N,059.95,K,A*44
$GPGSA,M,3,03,06,15,16,18,21,25,22,,,,,2.1,1.4,1.6*34
$GPGGA,153820.80,4847.198249,N,00205.675316,E,1,08,1.4,158.37,M,47.29,M,,*63
$GPVTG,293.1,T,,,032.37,N,059.95,K,A*4C
$GPGSA,M,3,03,06,15,16,18,21,25,22,,,,,2.1,1.4,1.6*34
$GPGGA,153821.00,4847.198973,N,00205.672819,E,1,08,1.4,158.41,M,47.29,M,,*6A
$GPVTG,293.8,T,,,032.56,N,060.30,K,A*47
$GPGSV,3,1,09,03,38,278,44,06,20,087,40,15,73,145,44,16,77,248,44*71
$GPGSV,3,2,09,18,27,120,40,21,57,068,45,25,10,205,34,37,29,155,*7C
$GPGSV,3,3,09,22,09,154,37,,,,,,,,,,,,*4D
$GPGSA,M,3,03,06,15,16,18,21,25,22,,,,,2.1,1.4,1.6*34
$GPZDA,153821.49,23,11,2005,00,00*61
$GPGRS,153821.00,1,0.4,-1.1,-1.2,0.3,1.5,0.1,-2.0,0.8,,,,*64
$GPGST,153821.00,3.1,4.5,2.2,88.5,4.5,2.2,5.3*6A
$GPGGA,153821.40,4847.200372,N,00205.667786,E,1,08,1.4,158.42,M,47.29,M,,*69
$GPVTG,293.0,T,,,032.46,N,060.11,K,A*4D
$GPGSA,M,3,03,06,15,16,18,21,25,22,,,,,2.1,1.4,1.6*34
$GPGGA,153821.60,4847.201080,N,00205.665257,E,1,08,1.4,158.48,M,47.29,M,,*65
$GPVTG,293.0,T,,,032.71,N,060.58,K,A*44
$GPGSA,M,3,03,06,15,16,18,21,25,22,,,,,2.1,1.4,1.6*34
$GPGGA,153821.80,4847.201766,N,00205.662727,E,1,08,1.4,158.47,M,47.29,M,,*6E
$GPVTG,292.3,T,,,032.56,N,060.29,K,A*45
$GPGSA,M,3,03,06,15,16,18,21,25,22,,,,,2.1,1.4,1.6*34
$GPGGA,153822.00,4847.202483,N,00205.660194,E,1,08,1.4,158.51,M,47.29,M,,*65
$GPVTG,292.8,T,,,032.85,N,060.84,K,A*47
$GPGSV,3,1,09,03,38,278,44,06,20,087,39,15,73,145,44,16,77,248,44*7F
$GPGSV,3,2,09,18,27,120,41,21,57,068,45,25,10,205,34,37,29,155,*7D
$GPGSV,3,3,09,22,09,154,37,,,,,,,,,,,,*4D
$GPGSA,M,3,03,06,15,16,18,21,25,22,,,,,2.1,1.4,1.6*34
$GPZDA,153822.55,23,11,2005,00,00*6F
$GPGRS,153822.00,1,0.4,-1.1,-1.2,0.3,1.5,0.1,-1.9,0.8,,,,*6D
$GPGST,153822.00,3.1,4.5,2.2,88.5,4.5,2.2,5.3*69
$GPGGA,153822.40,4847.203897,N,00205.655117,E,1,08,1.4,158.51,M,47.29,M,,*64
$GPVTG,293.0,T,,,032.85,N,060.83,K,A*49
$GPGSA,M,3,03,06,15,16,18,21,25,22,,,,,2.1,1.4,1.6*34
$GPGGA,153822.60,4847.204596,N,00205.652563,E,1,08,1.4,158.55,M,47.29,M,,*69
$GPVTG,292.5,T,,,032.91,N,060.95,K,A*4F
$GPGSA,M,3,03,06,15,16,18,21,25,22,,,,,2.1,1.4,1.6*34
$GPGGA,153822.80,4847.205297,N,00205.650010,E,1,08,1.4,158.57,M,47.29,M,,*61
$GPVTG,292.6,T,,,032.91,N,060.95,K,A*4C
$GPGSA,M,3,03,06,15,16,18,21,25,22,,,,,2.1,1.4,1.6*34
$GPGGA,153823.00,4847.206014,N,00205.647450,E,1,08,1.4,158.62,M,47.29,M,,*62
$GPVTG,293.0,T,,,033.02,N,061.15,K,A*49
$GPGSV,3,1,09,03,38,278,44,06,20,087,40,15,73,144,44,16,77,248,44*70
$GPGSV,3,2,09,18,27,120,40,21,57,068,45,25,09,205,32,37,29,155,*72
$GPGSV,3,3,09,22,09,154,36,,,,,,,,,,,,*4C
$GPGSA,M,3,03,06,15,16,18,21,25,22,,,,,2.1,1.4,1.6*34
$GPZDA,153823.65,23,11,2005,00,00*6D
$GPGRS,153823.00,1,0.4,-1.1,-1.2,0.3,1.5,0.1,-1.9,0.8,,,,*6C
$GPGST,153823.00,3.1,4.5,2.2,88.5,4.5,2.2,5.3*68
$GPGGA,153823.60,4847.208229,N,00205.639795,E,1,08,1.4,158.75,M,47.29,M,,*63
$GPVTG,293.9,T,,,033.27,N,061.62,K,A*47
$GPGSA,M,3,03,06,15,16,18,21,25,22,,,,,2.1,1.4,1.6*34
$GPGGA,153823.80,4847.208947,N,00205.637217,E,1,08,1.4,158.74,M,47.29,M,,*6E
$GPVTG,292.8,T,,,033.30,N,061.68,K,A*4B
$GPGSA,M,3,03,06,15,16,18,21,25,22,,,,,2.1,1.4,1.6*34
$GPGGA,153824.00,4847.209636,N,00205.634618,E,1,08,1.4,158.71,M,47.29,M,,*64
$GPVTG,292.8,T,,,033.42,N,061.89,K,A*41
$GPGSV,3,1,09,03,38,278,44,06,20,087,39,15,73,144,45,16,77,248,44*7F
$GPGSV,3,2,09,18,27,120,40,21,57,068,45,25,09,205,32,37,29,155,*72
$GPGSV,3,3,09,22,09,154,35,,,,,,,,,,,,*4F
$GPGSA,M,3,03,06,15,16,18,21,25,22,,,,,2.1,1.4,1.6*34
$GPZDA,153824.49,23,11,2005,00,00*64
$GPGRS,153824.00,1,0.4,-1.1,-1.2,0.3,1.5,0.1,-2.0,0.8,,,,*61
$GPGST,153824.00,3.1,4.5,2.2,88.7,4.5,2.2,5.3*6D
$GPGGA,153824.40,4847.211077,N,00205.629447,E,1,08,1.4,158.73,M,47.29,M,,*6C
$GPVTG,292.9,T,,,033.40,N,061.85,K,A*4E
$GPGSA,M,3,03,06,15,16,18,21,25,22,,,,,2.1,1.4,1.6*34
$GPGGA,153824.60,4847.211802,N,00205.626834,E,1,08,1.4,158.72,M,47.29,M,,*62
$GPVTG,292.8,T,,,033.74,N,062.48,K,A*4A
$GPGSA,M,3,03,06,15,16,18,21,25,22,,,,,2.1,1.4,1.6*34
$GPGGA,153824.80,4847.212533,N,00205.624221,E,1,08,1.4,158.70,M,47.29,M,,*6E
$GPVTG,292.9,T,,,033.78,N,062.57,K,A*49
$GPGSA,M,3,03,06,15,16,18,21,25,22,,,,,2.1,1.4,1.6*34
$GPGGA,153825.00,4847.213440,N,00205.621604,E,1,07,1.5,158.89,M,47.29,M,,*6D
$GPVTG,293.0,T,,,033.74,N,062.48,K,A*43
$GPGSV,3,1,09,03,38,278,43,06,20,087,39,15,73,144,45,16,77,248,44*78
$GPGSV,3,2,09,18,27,120,40,21,57,068,45,25,09,205,36,37,29,155,*76
$GPGSV,3,3,09,22,09,154,32,,,,,,,,,,,,*48
$GPGSA,M,3,03,06,15,16,18,21,25,,,,,,2.2,1.5,1.6*36
$GPZDA,153825.57,23,11,2005,00,00*6A
$GPGRS,153825.00,1,0.3,-1.0,-1.2,0.3,1.7,0.0,-1.6,,,,,*46
$GPGST,153825.00,2.8,4.9,2.2,88.6,4.9,2.2,5.4*62
$GPGGA,153825.40,4847.214903,N,00205.616354,E,1,07,1.5,158.88,M,47.29,M,,*61
$GPVTG,292.7,T,,,033.99,N,062.94,K,A*47
$GPGSA,M,3,03,06,15,16,18,21,25,,,,,,2.2,1.5,1.6*36
$GPGGA,153825.60,4847.215632,N,00205.613709,E,1,07,1.5,158.84,M,47.29,M,,*6A
$GPVTG,292.6,T,,,034.12,N,063.19,K,A*46
$GPGSA,M,3,03,06,15,16,18,21,25,,,,,,2.2,1.5,1.6*36
$GPGGA,153826.00,4847.216912,N,00205.608439,E,1,08,1.4,158.64,M,47.29,M,,*6B
$GPVTG,292.9,T,,,034.26,N,063.45,K,A*47
$GPGSV,3,1,09,03,38,278,44,06,20,087,38,15,73,144,45,16,77,248,44*7E
$GPGSV,3,2,09,18,27,120,40,21,57,068,44,25,09,205,35,37,29,155,*74
$GPGSV,3,3,09,22,09,154,33,,,,,,,,,,,,*49
$GPGSA,M,3,03,06,15,16,18,21,25,22,,,,,2.1,1.4,1.6*34
$GPZDA,153826.49,23,11,2005,00,00*66
$GPGRS,153826.00,1,0.4,-1.1,-1.2,0.3,1.5,0.1,-2.0,0.8,,,,*63
$GPGST,153826.00,3.1,4.5,2.2,88.5,4.5,2.2,5.3*6D
$GPGGA,153826.40,4847.218394,N,00205.603136,E,1,08,1.4,158.60,M,47.29,M,,*60
$GPVTG,292.8,T,,,034.22,N,063.38,K,A*48
$GPGSA,M,3,03,06,15,16,18,21,25,22,,,,,2.1,1.4,1.6*34
$GPGGA,153826.60,4847.219144,N,00205.600478,E,1,08,1.4,158.58,M,47.29,M,,*6B
$GPVTG,293.1,T,,,034.41,N,063.73,K,A*4A
$GPGSA,M,3,03,06,15,16,18,21,25,22,,,,,2.1,1.4,1.6*34
$GPGGA,153826.80,4847.219896,N,00205.597814,E,1,08,1.4,158.56,M,47.29,M,,*66
$GPVTG,293.1,T,,,034.48,N,063.86,K,A*49
$GPGSA,M,3,03,06,15,16,18,21,25,22,,,,,2.1,1.4,1.6*34
$GPGGA,153827.00,4847.220653,N,00205.595149,E,1,08,1.4,158.59,M,47.29,M,,*6E
$GPVTG,293.0,T,,,034.55,N,063.98,K,A*4B
$GPGSV,3,1,09,03,38,278,43,06,20,087,39,15,73,144,45,16,77,248,44*78
$GPGSV,3,2,09,18,27,120,40,21,57,068,45,25,09,205,32,37,29,155,*72
$GPGSV,3,3,09,22,10,154,36,,,,,,,,,,,,*44
$GPGSA,M,3,03,06,15,16,18,21,25,22,,,,,2.1,1.4,1.6*34
$GPZDA,153827.55,23,11,2005,00,00*6A
$GPGRS,153827.00,1,0.4,-1.0,-1.2,0.4,1.5,0.1,-2.0,0.8,,,,*64
$GPGST,153827.00,3.1,4.5,2.2,88.6,4.5,2.2,5.3*6F
$GPGGA,153827.40,4847.222171,N,00205.589788,E,1,08,1.4,158.56,M,47.29,M,,*66
$GPVTG,293.2,T,,,034.72,N,064.31,K,A*48
$GPGSA,M,3,03,06,15,16,18,21,25,22,,,,,2.1,1.4,1.6*34
$GPGGA,153827.80,4847.223172,N,00205.584082,E,1,07,1.5,157.79,M,47.29,M,,*64
$GPVTG,292.9,T,,,034.92,N,064.67,K,A*4F
$GPGSA,M,3,03,06,15,16,18,21,22,,,,,,2.3,1.5,1.7*31
$GPGGA,153828.00,4847.223927,N,00205.581399,E,1,07,1.5,157.76,M,47.29,M,,*68
$GPVTG,293.4,T,,,034.89,N,064.61,K,A*4F
$GPGSV,3,1,09,03,38,278,43,06,20,087,39,15,73,144,45,16,77,248,44*78
$GPGSV,3,2,09,18,27,120,41,21,57,068,44,25,09,205,,37,29,155,*73
$GPGSV,3,3,09,22,10,154,34,,,,,,,,,,,,*46
$GPGSA,M,3,03,06,15,16,18,21,22,,,,,,2.3,1.5,1.7*31
$GPZDA,153828.48,23,11,2005,00,00*69
$GPGRS,153828.00,1,0.0,-1.0,-1.3,0.3,1.1,0.5,-0.3,,,,,*4E
$GPGST,153828.00,2.1,4.9,2.4,274.4,4.9,2.4,5.5*54
$GPGGA,153828.40,4847.225448,N,00205.576000,E,1,07,1.5,157.71,M,47.29,M,,*62
$GPVTG,293.1,T,,,034.95,N,064.72,K,A*45
$GPGSA,M,3,03,06,15,16,18,21,22,,,,,,2.3,1.5,1.7*31
$GPGGA,153828.60,4847.226191,N,00205.573300,E,1,07,1.5,157.66,M,47.29,M,,*62
$GPVTG,292.6,T,,,034.82,N,064.48,K,A*4C
$GPGSA,M,3,03,06,15,16,18,21,22,,,,,,2.3,1.5,1.7*31
$GPGGA,153828.80,4847.226951,N,00205.570601,E,1,07,1.5,157.64,M,47.29,M,,*6D
$GPVTG,293.1,T,,,034.92,N,064.68,K,A*49
$GPGSA,M,3,03,06,15,16,18,21,22,,,,,,2.3,1.5,1.7*31
$GPGGA,153829.00,4847.227543,N,00205.567882,E,1,06,2.1,157.50,M,47.29,M,,*68
$GPVTG,293.1,T,,,034.96,N,064.74,K,A*40
$GPGSV,3,1,09,03,38,278,43,06,20,087,38,15,73,144,45,16,77,248,44*79
